{
  "version": 0.6,
  "generator": "Overpass API 0.7.56.1002 b121d216",
  "osm3s": {
    "timestamp_osm_base": "2020-03-24T17:42:02Z",
    "timestamp_areas_base": "2020-03-06T11:03:01Z",
    "copyright": "The data included in this document is from www.openstreetmap.org. The data is made available under ODbL."
  },
  "elements": [
    {
      "type": "node",
      "id": 31445570,
      "lat": 9.0327607,
      "lon": 7.4430199,
      "tags": {
        "name": "Millipat Plaza",
        "note": "indoor_shopping_centre",
        "shop": "mall"
      }
    },
    {
      "type": "node",
      "id": 541871957,
      "lat": 9.0405241,
      "lon": 7.525267,
      "tags": {
        "name": "Manan",
        "shop": "supermarket"
      }
    },
    {
      "type": "node",
      "id": 559767929,
      "lat": 10.5483703,
      "lon": 7.4521461,
      "tags": {
        "name": "Ostrich Bakery",
        "shop": "bakery"
      }
    },
    {
      "type": "node",
      "id": 560945786,
      "lat": 10.4970308,
      "lon": 7.4191705,
      "tags": {
        "name": "ABC Bus Transport",
        "shop": "travel_agency"
      }
    },
    {
      "type": "node",
      "id": 560945787,
      "lat": 10.5045562,
      "lon": 7.4388423,
      "tags": {
        "brand": "Peugeot",
        "fixme": "opening_hours",
        "name": "ASD Motors",
        "shop": "car"
      }
    },
    {
      "type": "node",
      "id": 639043270,
      "lat": 6.4894158,
      "lon": 3.3572033,
      "tags": {
        "amenity": "police",
        "historic": "Police Station",
        "name": "Bode Thomas Police Station",
        "operator": "Nigerian Police Force",
        "shop": "doityourself"
      }
    },
    {
      "type": "node",
      "id": 889062199,
      "lat": 9.0580872,
      "lon": 7.4029158,
      "tags": {
        "name": "Stalls",
        "shop": "convenience"
      }
    },
    {
      "type": "node",
      "id": 889313935,
      "lat": 6.4136752,
      "lon": 2.9387322,
      "tags": {
        "name": "Stalls",
        "shop": "convenience"
      }
    },
    {
      "type": "node",
      "id": 893689255,
      "lat": 9.0687641,
      "lon": 7.4819961,
      "tags": {
        "shop": "electronics"
      }
    },
    {
      "type": "node",
      "id": 1754869251,
      "lat": 10.5078012,
      "lon": 7.4333218,
      "tags": {
        "addr:street": "Maiduguri Road",
        "name": "Shagon Buba",
        "shop": "supermarket"
      }
    },
    {
      "type": "node",
      "id": 1827676066,
      "lat": 9.8903054,
      "lon": 8.8786661,
      "tags": {
        "name": "Oasis",
        "shop": "bakery",
        "wheelchair": "no"
      }
    },
    {
      "type": "node",
      "id": 1829731068,
      "lat": 4.829518,
      "lon": 7.0488385,
      "tags": {
        "name": "Welcome U Shopping Mall",
        "shop": "supermarket"
      }
    },
    {
      "type": "node",
      "id": 1842623481,
      "lat": 7.5633897,
      "lon": 6.6032049,
      "tags": {
        "name": "Muzzy's Shop",
        "shop": "convenience"
      }
    },
    {
      "type": "node",
      "id": 1842624783,
      "lat": 7.5612826,
      "lon": 6.604438,
      "tags": {
        "shop": "convenience"
      }
    },
    {
      "type": "node",
      "id": 1842624786,
      "lat": 7.5601432,
      "lon": 6.6046345,
      "tags": {
        "shop": "doityourself"
      }
    },
    {
      "type": "node",
      "id": 1842638002,
      "lat": 7.5607999,
      "lon": 6.6391626,
      "tags": {
        "shop": "kiosk"
      }
    },
    {
      "type": "node",
      "id": 1842640314,
      "lat": 7.5414667,
      "lon": 6.6788861,
      "tags": {
        "name": "ISSSAN Super Market",
        "shop": "convenience"
      }
    },
    {
      "type": "node",
      "id": 1842741901,
      "lat": 7.5402595,
      "lon": 6.6780868,
      "tags": {
        "shop": "greengrocer"
      }
    },
    {
      "type": "node",
      "id": 1844885847,
      "lat": 7.5571552,
      "lon": 6.6246324,
      "tags": {
        "name": "JDP Butcher",
        "shop": "butcher"
      }
    },
    {
      "type": "node",
      "id": 1846542108,
      "lat": 7.5621521,
      "lon": 6.6344601,
      "tags": {
        "shop": "butcher"
      }
    },
    {
      "type": "node",
      "id": 1851239799,
      "lat": 7.556393,
      "lon": 6.6163497,
      "tags": {
        "name": "Frozen Chicken Shop",
        "shop": "butcher"
      }
    },
    {
      "type": "node",
      "id": 1851239804,
      "lat": 7.5550826,
      "lon": 6.6172048,
      "tags": {
        "shop": "kiosk"
      }
    },
    {
      "type": "node",
      "id": 1851243248,
      "lat": 7.5607487,
      "lon": 6.6040244,
      "tags": {
        "shop": "kiosk"
      }
    },
    {
      "type": "node",
      "id": 1880774249,
      "lat": 10.5079875,
      "lon": 7.4333159,
      "tags": {
        "addr:housename": "10B",
        "addr:housenumber": "No 10",
        "addr:street": "Maiduguri Road",
        "name": "Abdullahi Mai Littattafai",
        "shop": "books"
      }
    },
    {
      "type": "node",
      "id": 1880785903,
      "lat": 10.4940573,
      "lon": 7.4182445,
      "tags": {
        "addr:housename": "1",
        "addr:housenumber": "1",
        "addr:street": "Junction Road off Aliyu Makama Road",
        "name": "Station Market",
        "shop": "greengrocer"
      }
    },
    {
      "type": "node",
      "id": 1880823156,
      "lat": 10.5540247,
      "lon": 7.4469929,
      "tags": {
        "name": "Da'awah Bookshop",
        "shop": "books"
      }
    },
    {
      "type": "node",
      "id": 1994157492,
      "lat": 6.3670581,
      "lon": 5.6311329,
      "tags": {
        "name": "Mechanic Workshop",
        "shop": "car_repair"
      }
    },
    {
      "type": "node",
      "id": 1994158081,
      "lat": 6.3785411,
      "lon": 5.6319462,
      "tags": {
        "name": "dj sound studio",
        "shop": "musical_instrument"
      }
    },
    {
      "type": "node",
      "id": 1994161440,
      "lat": 6.3799286,
      "lon": 5.632593,
      "tags": {
        "shop": "convenience"
      }
    },
    {
      "type": "node",
      "id": 1994165612,
      "lat": 6.3791911,
      "lon": 5.6322378,
      "tags": {
        "shop": "convenience"
      }
    },
    {
      "type": "node",
      "id": 1995054550,
      "lat": 6.3549539,
      "lon": 5.5766181,
      "tags": {
        "shop": "kiosk"
      }
    },
    {
      "type": "node",
      "id": 1995055868,
      "lat": 6.3636792,
      "lon": 5.5890833,
      "tags": {
        "name": "Shopping Mall",
        "shop": "mall"
      }
    },
    {
      "type": "node",
      "id": 1995055874,
      "lat": 6.3566656,
      "lon": 5.5754524,
      "tags": {
        "shop": "convenience"
      }
    },
    {
      "type": "node",
      "id": 1995055887,
      "lat": 6.3618145,
      "lon": 5.578318,
      "tags": {
        "shop": "convenience"
      }
    },
    {
      "type": "node",
      "id": 1995056048,
      "lat": 6.3616134,
      "lon": 5.5763618,
      "tags": {
        "shop": "convenience"
      }
    },
    {
      "type": "node",
      "id": 1995056078,
      "lat": 6.3617316,
      "lon": 5.5771023,
      "tags": {
        "shop": "convenience"
      }
    },
    {
      "type": "node",
      "id": 2000020962,
      "lat": 6.3558914,
      "lon": 5.5741497,
      "tags": {
        "shop": "convenience"
      }
    },
    {
      "type": "node",
      "id": 2000021001,
      "lat": 6.3624318,
      "lon": 5.5795687,
      "tags": {
        "shop": "convenience"
      }
    },
    {
      "type": "node",
      "id": 2000021046,
      "lat": 6.3643029,
      "lon": 5.5787299,
      "tags": {
        "shop": "convenience"
      }
    },
    {
      "type": "node",
      "id": 2000021091,
      "lat": 6.3579901,
      "lon": 5.5725822,
      "tags": {
        "shop": "convenience"
      }
    },
    {
      "type": "node",
      "id": 2000021145,
      "lat": 6.3607494,
      "lon": 5.574,
      "tags": {
        "name": "stores",
        "shop": "convenience"
      }
    },
    {
      "type": "node",
      "id": 2000021153,
      "lat": 6.3618141,
      "lon": 5.5779551,
      "tags": {
        "shop": "convenience"
      }
    },
    {
      "type": "node",
      "id": 2000021181,
      "lat": 6.3671079,
      "lon": 5.5768857,
      "tags": {
        "shop": "convenience"
      }
    },
    {
      "type": "node",
      "id": 2072622564,
      "lat": 6.3799507,
      "lon": 5.632567,
      "tags": {
        "shop": "convenience"
      }
    },
    {
      "type": "node",
      "id": 2072662365,
      "lat": 6.3648204,
      "lon": 5.5825126,
      "tags": {
        "building": "yes",
        "name": "Our Lady Bakary",
        "shop": "bakery"
      }
    },
    {
      "type": "node",
      "id": 2072662598,
      "lat": 6.3558712,
      "lon": 5.5740871,
      "tags": {
        "building": "yes",
        "shop": "variety_store"
      }
    },
    {
      "type": "node",
      "id": 2072662618,
      "lat": 6.361057,
      "lon": 5.5806837,
      "tags": {
        "name": "Store",
        "shop": "department_store"
      }
    },
    {
      "type": "node",
      "id": 2075846069,
      "lat": 6.310402,
      "lon": 5.6200198,
      "tags": {
        "name": "Da Viva Mall",
        "opening_hours": "24/7",
        "shop": "clothes"
      }
    },
    {
      "type": "node",
      "id": 2075846193,
      "lat": 6.324686,
      "lon": 5.6147072,
      "tags": {
        "name": "Mall of America",
        "opening_hours": "Mo-Fr 08:30-20:00",
        "shop": "mall"
      }
    },
    {
      "type": "node",
      "id": 2075846352,
      "lat": 6.3067305,
      "lon": 5.6204992,
      "tags": {
        "shop": "mall"
      }
    },
    {
      "type": "node",
      "id": 2075846430,
      "lat": 6.3273961,
      "lon": 5.6186327,
      "tags": {
        "name": "Vegetable Market",
        "shop": "greengrocer"
      }
    },
    {
      "type": "node",
      "id": 2152945402,
      "lat": 6.3361529,
      "lon": 5.6313118,
      "tags": {
        "amenity": "bar",
        "shop": "alcohol"
      }
    },
    {
      "type": "node",
      "id": 2152956437,
      "lat": 6.2989018,
      "lon": 5.5935678,
      "tags": {
        "name": "Block Of Stores",
        "shop": "convenience"
      }
    },
    {
      "type": "node",
      "id": 2152956450,
      "lat": 6.298611,
      "lon": 5.6025434,
      "tags": {
        "name": "Block of Shop",
        "shop": "beverages"
      }
    },
    {
      "type": "node",
      "id": 2152956656,
      "lat": 6.2987513,
      "lon": 5.6025535,
      "tags": {
        "name": "Block of Shop",
        "shop": "beverages"
      }
    },
    {
      "type": "node",
      "id": 2152956684,
      "lat": 6.2972399,
      "lon": 5.5997612,
      "tags": {
        "name": "Block of Shops",
        "shop": "variety_store"
      }
    },
    {
      "type": "node",
      "id": 2152958084,
      "lat": 6.3296664,
      "lon": 5.6297451,
      "tags": {
        "name": "Casket Shops",
        "shop": "furniture"
      }
    },
    {
      "type": "node",
      "id": 2154487135,
      "lat": 6.3357949,
      "lon": 5.6305293,
      "tags": {
        "amenity": "bar",
        "shop": "alcohol"
      }
    },
    {
      "type": "node",
      "id": 2154487255,
      "lat": 6.3143472,
      "lon": 5.6114431,
      "tags": {
        "building": "yes",
        "name": "Beck & Call Cleans",
        "shop": "laundry"
      }
    },
    {
      "type": "node",
      "id": 2154491493,
      "lat": 6.3348345,
      "lon": 5.6185698,
      "tags": {
        "name": "Block of Shops",
        "shop": "convenience"
      }
    },
    {
      "type": "node",
      "id": 2154493767,
      "lat": 6.3141321,
      "lon": 5.6099926,
      "tags": {
        "building": "yes",
        "name": "Bulwark doors",
        "shop": "mall"
      }
    },
    {
      "type": "node",
      "id": 2154544107,
      "lat": 6.3246519,
      "lon": 5.6261959,
      "tags": {
        "name": "Etisalat Office",
        "shop": "mobile_phone"
      }
    },
    {
      "type": "node",
      "id": 2154544485,
      "lat": 6.3293383,
      "lon": 5.6276685,
      "tags": {
        "name": "Evans Brother Nig. Publishers",
        "shop": "stationery"
      }
    },
    {
      "type": "node",
      "id": 2154548133,
      "lat": 6.3256666,
      "lon": 5.6322505,
      "tags": {
        "name": "Frethel Plaza",
        "shop": "department_store"
      }
    },
    {
      "type": "node",
      "id": 2154571384,
      "lat": 6.3370811,
      "lon": 5.6163993,
      "tags": {
        "name": "MDS Logistics (UAC)",
        "shop": "stationery"
      }
    },
    {
      "type": "node",
      "id": 2154572146,
      "lat": 6.2910158,
      "lon": 5.6088394,
      "tags": {
        "name": "Majority Plaza",
        "shop": "department_store"
      }
    },
    {
      "type": "node",
      "id": 2154575308,
      "lat": 6.2976353,
      "lon": 5.5921467,
      "tags": {
        "name": "Mechanic Workshop",
        "shop": "electronics"
      }
    },
    {
      "type": "node",
      "id": 2154575309,
      "lat": 6.2978445,
      "lon": 5.5908904,
      "tags": {
        "name": "Mechanic Workshop",
        "shop": "electronics"
      }
    },
    {
      "type": "node",
      "id": 2154575310,
      "lat": 6.3086276,
      "lon": 5.6027162,
      "tags": {
        "name": "Mechanic Workshop",
        "shop": "car_repair"
      }
    },
    {
      "type": "node",
      "id": 2154575311,
      "lat": 6.3137832,
      "lon": 5.6013267,
      "tags": {
        "name": "Mechanic Workshop",
        "shop": "car_repair"
      }
    },
    {
      "type": "node",
      "id": 2154575312,
      "lat": 6.3308836,
      "lon": 5.627242,
      "tags": {
        "name": "Mechanic Workshop",
        "shop": "car_repair"
      }
    },
    {
      "type": "node",
      "id": 2154575313,
      "lat": 6.3311264,
      "lon": 5.6266745,
      "tags": {
        "name": "Mechanic Workshop",
        "shop": "car_repair"
      }
    },
    {
      "type": "node",
      "id": 2154575330,
      "lat": 6.331176,
      "lon": 5.6299767,
      "tags": {
        "name": "Mechanic Workshop",
        "shop": "car_repair"
      }
    },
    {
      "type": "node",
      "id": 2154575366,
      "lat": 6.3312032,
      "lon": 5.6263255,
      "tags": {
        "name": "Mechanic Workshop",
        "shop": "car_repair"
      }
    },
    {
      "type": "node",
      "id": 2154575442,
      "lat": 6.3319352,
      "lon": 5.6319676,
      "tags": {
        "name": "Mechanic Workshop",
        "shop": "car_repair"
      }
    },
    {
      "type": "node",
      "id": 2154575934,
      "lat": 6.3325158,
      "lon": 5.6268346,
      "tags": {
        "name": "Mechanic Workshop",
        "shop": "car_repair"
      }
    },
    {
      "type": "node",
      "id": 2154575936,
      "lat": 6.3329403,
      "lon": 5.6270065,
      "tags": {
        "name": "Mechanic Workshop",
        "shop": "car_repair"
      }
    },
    {
      "type": "node",
      "id": 2154575937,
      "lat": 6.3330162,
      "lon": 5.6328612,
      "tags": {
        "name": "Mechanic Workshop",
        "shop": "car_repair"
      }
    },
    {
      "type": "node",
      "id": 2154575939,
      "lat": 6.3339831,
      "lon": 5.6281162,
      "tags": {
        "name": "Mechanic Workshop",
        "shop": "car_repair"
      }
    },
    {
      "type": "node",
      "id": 2154575943,
      "lat": 6.3367592,
      "lon": 5.632215,
      "tags": {
        "name": "Mechanic Workshop",
        "shop": "car_repair"
      }
    },
    {
      "type": "node",
      "id": 2155647524,
      "lat": 6.3360105,
      "lon": 5.6186238,
      "tags": {
        "name": "Shops",
        "shop": "convenience"
      }
    },
    {
      "type": "node",
      "id": 2155703050,
      "lat": 6.3271598,
      "lon": 5.617214,
      "tags": {
        "brand": "Kia",
        "brand:wikidata": "Q35349",
        "brand:wikipedia": "en:Kia Motors",
        "name": "Kia",
        "shop": "car"
      }
    },
    {
      "type": "node",
      "id": 2155726563,
      "lat": 6.3320983,
      "lon": 5.6347119,
      "tags": {
        "name": "Royal Shopping Mall",
        "shop": "department_store"
      }
    },
    {
      "type": "node",
      "id": 2155730225,
      "lat": 6.3088475,
      "lon": 5.6178219,
      "tags": {
        "name": "Shopping Mall",
        "shop": "mall"
      }
    },
    {
      "type": "node",
      "id": 2155730286,
      "lat": 6.3092785,
      "lon": 5.6182148,
      "tags": {
        "name": "Shopping Mall",
        "shop": "mall"
      }
    },
    {
      "type": "node",
      "id": 2155730871,
      "lat": 6.3088783,
      "lon": 5.617434,
      "tags": {
        "shop": "variety_store"
      }
    },
    {
      "type": "node",
      "id": 2155730872,
      "lat": 6.3096391,
      "lon": 5.6187709,
      "tags": {
        "shop": "variety_store"
      }
    },
    {
      "type": "node",
      "id": 2155730873,
      "lat": 6.3098329,
      "lon": 5.618046,
      "tags": {
        "shop": "variety_store"
      }
    },
    {
      "type": "node",
      "id": 2155730874,
      "lat": 6.3098774,
      "lon": 5.6186383,
      "tags": {
        "shop": "variety_store"
      }
    },
    {
      "type": "node",
      "id": 2155730875,
      "lat": 6.3109414,
      "lon": 5.6142423,
      "tags": {
        "shop": "variety_store"
      }
    },
    {
      "type": "node",
      "id": 2155730900,
      "lat": 6.3126084,
      "lon": 5.6149207,
      "tags": {
        "shop": "variety_store"
      }
    },
    {
      "type": "node",
      "id": 2155730927,
      "lat": 6.3183488,
      "lon": 5.6076364,
      "tags": {
        "shop": "convenience"
      }
    },
    {
      "type": "node",
      "id": 2155730928,
      "lat": 6.3185868,
      "lon": 5.6086811,
      "tags": {
        "shop": "clothes"
      }
    },
    {
      "type": "node",
      "id": 2155730986,
      "lat": 6.3191864,
      "lon": 5.6078729,
      "tags": {
        "shop": "clothes"
      }
    },
    {
      "type": "node",
      "id": 2155738762,
      "lat": 6.3231115,
      "lon": 5.6341004,
      "tags": {
        "name": "Wood Sawmill",
        "shop": "furniture"
      }
    },
    {
      "type": "node",
      "id": 2155805949,
      "lat": 6.3140671,
      "lon": 5.6100961,
      "tags": {
        "building": "yes",
        "name": "zenox cleaners",
        "shop": "laundry"
      }
    },
    {
      "type": "node",
      "id": 2157167872,
      "lat": 8.2675725,
      "lon": 4.8003332,
      "tags": {
        "name": "Shops",
        "shop": "convenience"
      }
    },
    {
      "type": "node",
      "id": 2157167873,
      "lat": 8.2678512,
      "lon": 4.8003064,
      "tags": {
        "name": "Shops",
        "shop": "convenience"
      }
    },
    {
      "type": "node",
      "id": 2157167874,
      "lat": 8.2684033,
      "lon": 4.8002635,
      "tags": {
        "name": "Shops",
        "shop": "convenience"
      }
    },
    {
      "type": "node",
      "id": 2157167875,
      "lat": 8.2680901,
      "lon": 4.8002796,
      "tags": {
        "name": "Shops",
        "shop": "convenience"
      }
    },
    {
      "type": "node",
      "id": 2157211894,
      "lat": 8.2790579,
      "lon": 4.7896532,
      "tags": {
        "name": "Alhaji S. Oba Shopping Complex",
        "shop": "convenience"
      }
    },
    {
      "type": "node",
      "id": 2160633012,
      "lat": 6.3362326,
      "lon": 5.6312711,
      "tags": {
        "amenity": "bar",
        "shop": "alcohol"
      }
    },
    {
      "type": "node",
      "id": 2160850278,
      "lat": 6.301588,
      "lon": 5.6025788,
      "tags": {
        "name": "Stores",
        "shop": "mall"
      }
    },
    {
      "type": "node",
      "id": 2160851401,
      "lat": 6.2984524,
      "lon": 5.5996901,
      "tags": {
        "name": "Troxis Shopping Complex",
        "shop": "department_store"
      }
    },
    {
      "type": "node",
      "id": 2160851573,
      "lat": 6.2989278,
      "lon": 5.5978666,
      "tags": {
        "name": "WashTech Laundry And Dry Cleaning Services",
        "shop": "laundry"
      }
    },
    {
      "type": "node",
      "id": 2161051980,
      "lat": 6.3293495,
      "lon": 5.6291028,
      "tags": {
        "name": "Gift Printing Press",
        "shop": "stationery"
      }
    },
    {
      "type": "node",
      "id": 2161068108,
      "lat": 6.331862,
      "lon": 5.6262259,
      "tags": {
        "name": "Mechanic Workshop",
        "shop": "car_repair"
      }
    },
    {
      "type": "node",
      "id": 2161068119,
      "lat": 6.3328871,
      "lon": 5.6319031,
      "tags": {
        "name": "Mechanic Workshop",
        "shop": "car_repair"
      }
    },
    {
      "type": "node",
      "id": 2161068217,
      "lat": 6.3338599,
      "lon": 5.6288539,
      "tags": {
        "name": "Mechanic Workshop",
        "shop": "car_repair"
      }
    },
    {
      "type": "node",
      "id": 2161068401,
      "lat": 6.3346096,
      "lon": 5.6335652,
      "tags": {
        "name": "Mechanic Workshop",
        "shop": "car_repair"
      }
    },
    {
      "type": "node",
      "id": 2161068574,
      "lat": 6.3347176,
      "lon": 5.6315607,
      "tags": {
        "name": "Mechanic Workshop",
        "shop": "car_repair"
      }
    },
    {
      "type": "node",
      "id": 2161068596,
      "lat": 6.3361298,
      "lon": 5.6310319,
      "tags": {
        "name": "Mechanic Workshop",
        "shop": "car_repair"
      }
    },
    {
      "type": "node",
      "id": 2161068600,
      "lat": 6.3373782,
      "lon": 5.6317395,
      "tags": {
        "name": "Mechanic Workshop",
        "shop": "car_repair"
      }
    },
    {
      "type": "node",
      "id": 2161071995,
      "lat": 6.3299193,
      "lon": 5.627007,
      "tags": {
        "name": "Optical World",
        "shop": "optician"
      }
    },
    {
      "type": "node",
      "id": 2161072908,
      "lat": 6.3315013,
      "lon": 5.6240724,
      "tags": {
        "name": "Phil Hallmark Supermarket",
        "shop": "supermarket"
      }
    },
    {
      "type": "node",
      "id": 2161073239,
      "lat": 6.3344003,
      "lon": 5.6341826,
      "tags": {
        "name": "Printing Press",
        "shop": "stationery"
      }
    },
    {
      "type": "node",
      "id": 2161077884,
      "lat": 6.3071707,
      "lon": 5.6170941,
      "tags": {
        "name": "Shopping Complex",
        "shop": "mall"
      }
    },
    {
      "type": "node",
      "id": 2161077921,
      "lat": 6.298522,
      "lon": 5.6025771,
      "tags": {
        "name": "Shopping Mall",
        "shop": "mall"
      }
    },
    {
      "type": "node",
      "id": 2161078270,
      "lat": 6.3364345,
      "lon": 5.6170313,
      "tags": {
        "name": "Shopping Mall",
        "shop": "convenience"
      }
    },
    {
      "type": "node",
      "id": 2161101795,
      "lat": 6.3243534,
      "lon": 5.6263971,
      "tags": {
        "name": "Star Times",
        "shop": "electronics"
      }
    },
    {
      "type": "node",
      "id": 2161101969,
      "lat": 6.3006874,
      "lon": 5.5926451,
      "tags": {
        "name": "Store {Building Material}",
        "shop": "department_store"
      }
    },
    {
      "type": "node",
      "id": 2161102115,
      "lat": 6.2989316,
      "lon": 5.5922119,
      "tags": {
        "name": "Stores",
        "shop": "clothes"
      }
    },
    {
      "type": "node",
      "id": 2161102170,
      "lat": 6.3014475,
      "lon": 5.6026307,
      "tags": {
        "name": "Stores",
        "shop": "convenience"
      }
    },
    {
      "type": "node",
      "id": 2161102700,
      "lat": 6.3014553,
      "lon": 5.6028013,
      "tags": {
        "name": "Stores",
        "shop": "mall"
      }
    },
    {
      "type": "node",
      "id": 2161102929,
      "lat": 6.3017584,
      "lon": 5.6022171,
      "tags": {
        "name": "Stores",
        "shop": "convenience"
      }
    },
    {
      "type": "node",
      "id": 2161102931,
      "lat": 6.30179,
      "lon": 5.6025034,
      "tags": {
        "name": "Stores",
        "shop": "convenience"
      }
    },
    {
      "type": "node",
      "id": 2161102932,
      "lat": 6.3019298,
      "lon": 5.6050883,
      "tags": {
        "name": "Stores",
        "shop": "mall"
      }
    },
    {
      "type": "node",
      "id": 2161102947,
      "lat": 6.3120148,
      "lon": 5.60454,
      "tags": {
        "name": "Stores",
        "shop": "convenience"
      }
    },
    {
      "type": "node",
      "id": 2161102961,
      "lat": 6.3121302,
      "lon": 5.6039746,
      "tags": {
        "name": "Stores",
        "shop": "convenience"
      }
    },
    {
      "type": "node",
      "id": 2161102963,
      "lat": 6.3140789,
      "lon": 5.6006142,
      "tags": {
        "name": "Stores",
        "shop": "variety_store"
      }
    },
    {
      "type": "node",
      "id": 2161102965,
      "lat": 6.3162751,
      "lon": 5.6119041,
      "tags": {
        "shop": "convenience"
      }
    },
    {
      "type": "node",
      "id": 2161102966,
      "lat": 6.3176506,
      "lon": 5.6098974,
      "tags": {
        "shop": "convenience"
      }
    },
    {
      "type": "node",
      "id": 2161102973,
      "lat": 6.3190819,
      "lon": 5.6080439,
      "tags": {
        "shop": "clothes"
      }
    },
    {
      "type": "node",
      "id": 2161102974,
      "lat": 6.3193343,
      "lon": 5.6076197,
      "tags": {
        "shop": "clothes"
      }
    },
    {
      "type": "node",
      "id": 2161103008,
      "lat": 6.3286578,
      "lon": 5.6281786,
      "tags": {
        "shop": "department_store"
      }
    },
    {
      "type": "node",
      "id": 2161103069,
      "lat": 6.3288341,
      "lon": 5.6282635,
      "tags": {
        "shop": "department_store"
      }
    },
    {
      "type": "node",
      "id": 2161103078,
      "lat": 6.3289613,
      "lon": 5.6286176,
      "tags": {
        "shop": "department_store"
      }
    },
    {
      "type": "node",
      "id": 2161103083,
      "lat": 6.3307153,
      "lon": 5.6146362,
      "tags": {
        "name": "Stores",
        "shop": "convenience"
      }
    },
    {
      "type": "node",
      "id": 2161103084,
      "lat": 6.3307589,
      "lon": 5.6258518,
      "tags": {
        "shop": "department_store"
      }
    },
    {
      "type": "node",
      "id": 2161103103,
      "lat": 6.3308985,
      "lon": 5.6257729,
      "tags": {
        "shop": "department_store"
      }
    },
    {
      "type": "node",
      "id": 2161103110,
      "lat": 6.3310765,
      "lon": 5.6255505,
      "tags": {
        "shop": "department_store"
      }
    },
    {
      "type": "node",
      "id": 2161103138,
      "lat": 6.333439,
      "lon": 5.6309031,
      "tags": {
        "shop": "department_store"
      }
    },
    {
      "type": "node",
      "id": 2161103618,
      "lat": 6.3336008,
      "lon": 5.6309137,
      "tags": {
        "shop": "department_store"
      }
    },
    {
      "type": "node",
      "id": 2161103850,
      "lat": 6.3336155,
      "lon": 5.6274804,
      "tags": {
        "shop": "department_store"
      }
    },
    {
      "type": "node",
      "id": 2161104015,
      "lat": 6.335048,
      "lon": 5.6291138,
      "tags": {
        "shop": "department_store"
      }
    },
    {
      "type": "node",
      "id": 2161104036,
      "lat": 6.3351157,
      "lon": 5.6292374,
      "tags": {
        "shop": "department_store"
      }
    },
    {
      "type": "node",
      "id": 2161104041,
      "lat": 6.3352269,
      "lon": 5.6337866,
      "tags": {
        "shop": "department_store"
      }
    },
    {
      "type": "node",
      "id": 2161104095,
      "lat": 6.335434,
      "lon": 5.6333317,
      "tags": {
        "shop": "department_store"
      }
    },
    {
      "type": "node",
      "id": 2161104096,
      "lat": 6.3358316,
      "lon": 5.6333524,
      "tags": {
        "shop": "department_store"
      }
    },
    {
      "type": "node",
      "id": 2161104097,
      "lat": 6.3359184,
      "lon": 5.6336089,
      "tags": {
        "shop": "department_store"
      }
    },
    {
      "type": "node",
      "id": 2161104098,
      "lat": 6.3362086,
      "lon": 5.6326923,
      "tags": {
        "shop": "department_store"
      }
    },
    {
      "type": "node",
      "id": 2161104099,
      "lat": 6.3362233,
      "lon": 5.6330216,
      "tags": {
        "shop": "department_store"
      }
    },
    {
      "type": "node",
      "id": 2161104100,
      "lat": 6.3373241,
      "lon": 5.6321367,
      "tags": {
        "shop": "department_store"
      }
    },
    {
      "type": "node",
      "id": 2161118827,
      "lat": 6.2988504,
      "lon": 5.5976775,
      "tags": {
        "name": "WashTech Laundry And Dry Cleaning Services",
        "shop": "laundry"
      }
    },
    {
      "type": "node",
      "id": 2161118911,
      "lat": 6.3329578,
      "lon": 5.6306975,
      "tags": {
        "name": "Wood Shop",
        "shop": "furniture"
      }
    },
    {
      "type": "node",
      "id": 2161118935,
      "lat": 6.333505,
      "lon": 5.6305233,
      "tags": {
        "name": "Wood Shop",
        "shop": "furniture"
      }
    },
    {
      "type": "node",
      "id": 2161118984,
      "lat": 6.3338317,
      "lon": 5.6306979,
      "tags": {
        "name": "Wood Shop",
        "shop": "furniture"
      }
    },
    {
      "type": "node",
      "id": 2161119184,
      "lat": 6.3341592,
      "lon": 5.6310666,
      "tags": {
        "name": "Wood Shop",
        "shop": "furniture"
      }
    },
    {
      "type": "node",
      "id": 2161119253,
      "lat": 6.3344463,
      "lon": 5.6313761,
      "tags": {
        "name": "Wood Shop",
        "shop": "furniture"
      }
    },
    {
      "type": "node",
      "id": 2161119397,
      "lat": 6.3346112,
      "lon": 5.6297572,
      "tags": {
        "name": "Wood Shop",
        "shop": "furniture"
      }
    },
    {
      "type": "node",
      "id": 2161119675,
      "lat": 6.3247182,
      "lon": 5.6138385,
      "tags": {
        "name": "Zoro Supermarket",
        "shop": "supermarket"
      }
    },
    {
      "type": "node",
      "id": 2161119696,
      "lat": 6.3109419,
      "lon": 5.5982237,
      "tags": {
        "name": "mechanic Workshop",
        "shop": "car_repair"
      }
    },
    {
      "type": "node",
      "id": 2177177726,
      "lat": 11.9862375,
      "lon": 8.5685041,
      "tags": {
        "name": "Shopping Time",
        "shop": "supermarket"
      }
    },
    {
      "type": "node",
      "id": 2177220018,
      "lat": 11.9819788,
      "lon": 8.5579443,
      "tags": {
        "name": "Oasis Bakery",
        "shop": "bakery"
      }
    },
    {
      "type": "node",
      "id": 2177220020,
      "lat": 11.9818528,
      "lon": 8.5581965,
      "tags": {
        "name": "Bakers Deligh",
        "shop": "bakery"
      }
    },
    {
      "type": "node",
      "id": 2177220021,
      "lat": 11.9886614,
      "lon": 8.5599828,
      "tags": {
        "name": "Rayar Stores",
        "shop": "convenience"
      }
    },
    {
      "type": "node",
      "id": 2208277121,
      "lat": 9.9211955,
      "lon": 8.8898675,
      "tags": {
        "shop": "camera",
        "source": "Bing"
      }
    },
    {
      "type": "node",
      "id": 2208277187,
      "lat": 9.9219943,
      "lon": 8.8909932,
      "tags": {
        "name": "Oasis bakery",
        "shop": "bakery",
        "source": "Bing"
      }
    },
    {
      "type": "node",
      "id": 2344236532,
      "lat": 6.3289377,
      "lon": 5.5947409,
      "tags": {
        "name": "Chucks & Chucks Laundry",
        "shop": "dry_cleaning"
      }
    },
    {
      "type": "node",
      "id": 2344236539,
      "lat": 6.3290813,
      "lon": 5.5934072,
      "tags": {
        "name": "Mechanic workshop",
        "shop": "car_repair"
      }
    },
    {
      "type": "node",
      "id": 2344236540,
      "lat": 6.328423,
      "lon": 5.5938777,
      "tags": {
        "name": "Shops",
        "shop": "mall"
      }
    },
    {
      "type": "node",
      "id": 2344236541,
      "lat": 6.3287969,
      "lon": 5.5935025,
      "tags": {
        "name": "Shops",
        "shop": "mall"
      }
    },
    {
      "type": "node",
      "id": 2344236542,
      "lat": 6.3290982,
      "lon": 5.594774,
      "tags": {
        "name": "Shops",
        "shop": "mall"
      }
    },
    {
      "type": "node",
      "id": 2344236543,
      "lat": 6.3291563,
      "lon": 5.5935907,
      "tags": {
        "name": "Shops",
        "shop": "mall"
      }
    },
    {
      "type": "node",
      "id": 2344236544,
      "lat": 6.3292473,
      "lon": 5.5949168,
      "tags": {
        "name": "Shops",
        "shop": "mall"
      }
    },
    {
      "type": "node",
      "id": 2344236550,
      "lat": 6.3284704,
      "lon": 5.5946225,
      "tags": {
        "name": "shops",
        "shop": "mall"
      }
    },
    {
      "type": "node",
      "id": 2344258139,
      "lat": 6.34396,
      "lon": 5.610133,
      "tags": {
        "name": "Shopping Complex",
        "shop": "mall"
      }
    },
    {
      "type": "node",
      "id": 2344258141,
      "lat": 6.340377,
      "lon": 5.610143,
      "tags": {
        "name": "Shops",
        "shop": "convenience"
      }
    },
    {
      "type": "node",
      "id": 2344258142,
      "lat": 6.341514,
      "lon": 5.610096,
      "tags": {
        "name": "Shops",
        "shop": "convenience"
      }
    },
    {
      "type": "node",
      "id": 2344258143,
      "lat": 6.342824,
      "lon": 5.610119,
      "tags": {
        "name": "Shops",
        "shop": "convenience"
      }
    },
    {
      "type": "node",
      "id": 2344258144,
      "lat": 6.3446628,
      "lon": 5.6104684,
      "tags": {
        "name": "Shops",
        "shop": "convenience"
      }
    },
    {
      "type": "node",
      "id": 2344263200,
      "lat": 6.3227727,
      "lon": 5.59832,
      "tags": {
        "name": "S&J Dry cleaning",
        "shop": "dry_cleaning"
      }
    },
    {
      "type": "node",
      "id": 2344263202,
      "lat": 6.3278874,
      "lon": 5.5997808,
      "tags": {
        "name": "Stores",
        "shop": "convenience"
      }
    },
    {
      "type": "node",
      "id": 2344263203,
      "lat": 6.3309861,
      "lon": 5.5968471,
      "tags": {
        "name": "Supermarket",
        "shop": "supermarket"
      }
    },
    {
      "type": "node",
      "id": 2344280069,
      "lat": 6.3370434,
      "lon": 5.603826,
      "tags": {
        "name": "Benos United Bread",
        "shop": "bakery"
      }
    },
    {
      "type": "node",
      "id": 2344305776,
      "lat": 6.3334891,
      "lon": 5.5965007,
      "tags": {
        "name": "Faith plaza",
        "shop": "mall"
      }
    },
    {
      "type": "node",
      "id": 2344305799,
      "lat": 6.330907,
      "lon": 5.5961805,
      "tags": {
        "name": "shops",
        "shop": "mall"
      }
    },
    {
      "type": "node",
      "id": 2344305800,
      "lat": 6.3313974,
      "lon": 5.5974795,
      "tags": {
        "name": "shops",
        "shop": "department_store"
      }
    },
    {
      "type": "node",
      "id": 2344316138,
      "lat": 6.3323339,
      "lon": 5.6067831,
      "tags": {
        "name": "Elite Luxury Suites",
        "shop": "laundry"
      }
    },
    {
      "type": "node",
      "id": 2344316147,
      "lat": 6.3336934,
      "lon": 5.6056248,
      "tags": {
        "name": "Shopping Mall",
        "shop": "mall"
      }
    },
    {
      "type": "node",
      "id": 2344328610,
      "lat": 6.3447245,
      "lon": 5.5976309,
      "tags": {
        "name": "shop",
        "shop": "mall"
      }
    },
    {
      "type": "node",
      "id": 2344328612,
      "lat": 6.325925,
      "lon": 5.6008041,
      "tags": {
        "name": "Chemist",
        "shop": "chemist"
      }
    },
    {
      "type": "node",
      "id": 2344328613,
      "lat": 6.3272604,
      "lon": 5.600537,
      "tags": {
        "name": "Chemist",
        "shop": "chemist"
      }
    },
    {
      "type": "node",
      "id": 2344328617,
      "lat": 6.3281712,
      "lon": 5.6031353,
      "tags": {
        "name": "Dry Cleaner Store",
        "shop": "dry_cleaning"
      }
    },
    {
      "type": "node",
      "id": 2344328619,
      "lat": 6.3260663,
      "lon": 5.6010793,
      "tags": {
        "name": "Hairdresser Salon",
        "shop": "hairdresser"
      }
    },
    {
      "type": "node",
      "id": 2344328622,
      "lat": 6.3255006,
      "lon": 5.6016367,
      "tags": {
        "name": "Medicine Store",
        "shop": "chemist"
      }
    },
    {
      "type": "node",
      "id": 2344328626,
      "lat": 6.3257486,
      "lon": 5.6010774,
      "tags": {
        "name": "Store",
        "shop": "convenience"
      }
    },
    {
      "type": "node",
      "id": 2344328627,
      "lat": 6.3271941,
      "lon": 5.6020047,
      "tags": {
        "name": "Store",
        "shop": "convenience"
      }
    },
    {
      "type": "node",
      "id": 2344328632,
      "lat": 6.323728,
      "lon": 5.6008678,
      "tags": {
        "shop": "convenience"
      }
    },
    {
      "type": "node",
      "id": 2344328633,
      "lat": 6.3242953,
      "lon": 5.6017505,
      "tags": {
        "shop": "convenience"
      }
    },
    {
      "type": "node",
      "id": 2344328634,
      "lat": 6.3245583,
      "lon": 5.6023564,
      "tags": {
        "shop": "convenience"
      }
    },
    {
      "type": "node",
      "id": 2344328635,
      "lat": 6.3246867,
      "lon": 5.6026622,
      "tags": {
        "shop": "convenience"
      }
    },
    {
      "type": "node",
      "id": 2344328636,
      "lat": 6.3248266,
      "lon": 5.6029401,
      "tags": {
        "shop": "convenience"
      }
    },
    {
      "type": "node",
      "id": 2344328637,
      "lat": 6.3252197,
      "lon": 5.6017276,
      "tags": {
        "shop": "convenience"
      }
    },
    {
      "type": "node",
      "id": 2344328638,
      "lat": 6.3252332,
      "lon": 5.6035802,
      "tags": {
        "shop": "convenience"
      }
    },
    {
      "type": "node",
      "id": 2344328639,
      "lat": 6.3252795,
      "lon": 5.6039203,
      "tags": {
        "shop": "car_repair"
      }
    },
    {
      "type": "node",
      "id": 2344328640,
      "lat": 6.3256492,
      "lon": 5.6004008,
      "tags": {
        "shop": "convenience"
      }
    },
    {
      "type": "node",
      "id": 2344328641,
      "lat": 6.3258771,
      "lon": 5.603801,
      "tags": {
        "shop": "car_repair"
      }
    },
    {
      "type": "node",
      "id": 2344328642,
      "lat": 6.326019,
      "lon": 5.6006429,
      "tags": {
        "shop": "convenience"
      }
    },
    {
      "type": "node",
      "id": 2344328643,
      "lat": 6.3260912,
      "lon": 5.6008121,
      "tags": {
        "shop": "convenience"
      }
    },
    {
      "type": "node",
      "id": 2344328644,
      "lat": 6.3260975,
      "lon": 5.6003431,
      "tags": {
        "shop": "convenience"
      }
    },
    {
      "type": "node",
      "id": 2344328645,
      "lat": 6.3262393,
      "lon": 5.601581,
      "tags": {
        "shop": "car_repair"
      }
    },
    {
      "type": "node",
      "id": 2344328647,
      "lat": 6.3266411,
      "lon": 5.60046,
      "tags": {
        "shop": "convenience"
      }
    },
    {
      "type": "node",
      "id": 2344328649,
      "lat": 6.3267672,
      "lon": 5.6008426,
      "tags": {
        "shop": "convenience"
      }
    },
    {
      "type": "node",
      "id": 2344328651,
      "lat": 6.3268768,
      "lon": 5.6022103,
      "tags": {
        "shop": "convenience"
      }
    },
    {
      "type": "node",
      "id": 2344328652,
      "lat": 6.3268986,
      "lon": 5.6011202,
      "tags": {
        "shop": "convenience"
      }
    },
    {
      "type": "node",
      "id": 2344328653,
      "lat": 6.3270453,
      "lon": 5.6024995,
      "tags": {
        "shop": "convenience"
      }
    },
    {
      "type": "node",
      "id": 2344328654,
      "lat": 6.327174,
      "lon": 5.6003073,
      "tags": {
        "shop": "convenience"
      }
    },
    {
      "type": "node",
      "id": 2344328655,
      "lat": 6.3272465,
      "lon": 5.602996,
      "tags": {
        "shop": "video"
      }
    },
    {
      "type": "node",
      "id": 2344328656,
      "lat": 6.327311,
      "lon": 5.6007327,
      "tags": {
        "shop": "convenience"
      }
    },
    {
      "type": "node",
      "id": 2344328657,
      "lat": 6.3273426,
      "lon": 5.6029001,
      "tags": {
        "shop": "convenience"
      }
    },
    {
      "type": "node",
      "id": 2344328658,
      "lat": 6.3274402,
      "lon": 5.6033956,
      "tags": {
        "shop": "convenience"
      }
    },
    {
      "type": "node",
      "id": 2344328659,
      "lat": 6.3275155,
      "lon": 5.6012913,
      "tags": {
        "shop": "convenience"
      }
    },
    {
      "type": "node",
      "id": 2344328660,
      "lat": 6.3278185,
      "lon": 5.6022408,
      "tags": {
        "shop": "convenience"
      }
    },
    {
      "type": "node",
      "id": 2344328661,
      "lat": 6.328088,
      "lon": 5.6039093,
      "tags": {
        "shop": "car_repair"
      }
    },
    {
      "type": "node",
      "id": 2344328662,
      "lat": 6.3282635,
      "lon": 5.6033225,
      "tags": {
        "shop": "car_repair"
      }
    },
    {
      "type": "node",
      "id": 2344328663,
      "lat": 6.3283783,
      "lon": 5.603469,
      "tags": {
        "shop": "convenience"
      }
    },
    {
      "type": "node",
      "id": 2344328664,
      "lat": 6.3285119,
      "lon": 5.6035665,
      "tags": {
        "shop": "car_repair"
      }
    },
    {
      "type": "node",
      "id": 2344328665,
      "lat": 6.3284536,
      "lon": 5.6037514,
      "tags": {
        "shop": "car_repair"
      }
    },
    {
      "type": "node",
      "id": 2344328666,
      "lat": 6.3285516,
      "lon": 5.6040846,
      "tags": {
        "shop": "convenience"
      }
    },
    {
      "type": "node",
      "id": 2344414236,
      "lat": 6.3357225,
      "lon": 5.6085604,
      "tags": {
        "name": "Blessed Pat Ossa",
        "shop": "doityourself"
      }
    },
    {
      "type": "node",
      "id": 2344414246,
      "lat": 6.3364293,
      "lon": 5.6074322,
      "tags": {
        "name": "Mechanic Workshop",
        "shop": "car_repair"
      }
    },
    {
      "type": "node",
      "id": 2344414247,
      "lat": 6.3339118,
      "lon": 5.6055562,
      "tags": {
        "name": "Mother Care",
        "shop": "baby_goods"
      }
    },
    {
      "type": "node",
      "id": 2344414250,
      "lat": 6.3336965,
      "lon": 5.6051729,
      "tags": {
        "name": "Shopping Mall",
        "shop": "mall"
      }
    },
    {
      "type": "node",
      "id": 2344414251,
      "lat": 6.3350375,
      "lon": 5.6074628,
      "tags": {
        "name": "Shopping Mall",
        "shop": "mall"
      }
    },
    {
      "type": "node",
      "id": 2344414252,
      "lat": 6.3353548,
      "lon": 5.608007,
      "tags": {
        "name": "Shopping Mall",
        "shop": "mall"
      }
    },
    {
      "type": "node",
      "id": 2344414253,
      "lat": 6.3336376,
      "lon": 5.6050345,
      "tags": {
        "name": "Shops",
        "shop": "convenience"
      }
    },
    {
      "type": "node",
      "id": 2344414254,
      "lat": 6.3342692,
      "lon": 5.6061296,
      "tags": {
        "name": "Shops",
        "shop": "convenience"
      }
    },
    {
      "type": "node",
      "id": 2344414255,
      "lat": 6.3347248,
      "lon": 5.604445,
      "tags": {
        "name": "Shops",
        "shop": "convenience"
      }
    },
    {
      "type": "node",
      "id": 2344414256,
      "lat": 6.334683,
      "lon": 5.6045855,
      "tags": {
        "name": "Shops",
        "shop": "convenience"
      }
    },
    {
      "type": "node",
      "id": 2344414257,
      "lat": 6.3347222,
      "lon": 5.6069412,
      "tags": {
        "name": "Shops",
        "shop": "convenience"
      }
    },
    {
      "type": "node",
      "id": 2344414258,
      "lat": 6.3355391,
      "lon": 5.6083442,
      "tags": {
        "name": "Shops",
        "shop": "convenience"
      }
    },
    {
      "type": "node",
      "id": 2344414259,
      "lat": 6.3361937,
      "lon": 5.6078834,
      "tags": {
        "name": "Shops",
        "shop": "kiosk"
      }
    },
    {
      "type": "node",
      "id": 2344414260,
      "lat": 6.3361957,
      "lon": 5.6087136,
      "tags": {
        "name": "Shops",
        "shop": "convenience"
      }
    },
    {
      "type": "node",
      "id": 2344414261,
      "lat": 6.3361993,
      "lon": 5.6058848,
      "tags": {
        "name": "Shops",
        "shop": "convenience"
      }
    },
    {
      "type": "node",
      "id": 2344414262,
      "lat": 6.3363591,
      "lon": 5.6079114,
      "tags": {
        "name": "Shops",
        "shop": "kiosk"
      }
    },
    {
      "type": "node",
      "id": 2344414263,
      "lat": 6.3363428,
      "lon": 5.6048548,
      "tags": {
        "name": "Shops",
        "shop": "convenience"
      }
    },
    {
      "type": "node",
      "id": 2344414264,
      "lat": 6.3364202,
      "lon": 5.6045616,
      "tags": {
        "name": "Shops",
        "shop": "convenience"
      }
    },
    {
      "type": "node",
      "id": 2344414265,
      "lat": 6.3365703,
      "lon": 5.6049014,
      "tags": {
        "name": "Shops",
        "shop": "convenience"
      }
    },
    {
      "type": "node",
      "id": 2344414266,
      "lat": 6.3366763,
      "lon": 5.6064031,
      "tags": {
        "name": "Shops",
        "shop": "kiosk"
      }
    },
    {
      "type": "node",
      "id": 2344424485,
      "lat": 6.325333,
      "lon": 5.603946,
      "tags": {
        "amenity": "waste_basket",
        "name": "Mechanic Workshop",
        "shop": "car_repair"
      }
    },
    {
      "type": "node",
      "id": 2344424486,
      "lat": 6.330131,
      "lon": 5.604495,
      "tags": {
        "name": "Mechanic Workshop",
        "shop": "car_repair"
      }
    },
    {
      "type": "node",
      "id": 2344424487,
      "lat": 6.331534,
      "lon": 5.6054752,
      "tags": {
        "name": "Mechanic Workshop",
        "shop": "car_repair"
      }
    },
    {
      "type": "node",
      "id": 2344426945,
      "lat": 6.3504415,
      "lon": 5.6136785,
      "tags": {
        "name": "Mouka Foam",
        "shop": "furniture"
      }
    },
    {
      "type": "node",
      "id": 2344426946,
      "lat": 6.3497541,
      "lon": 5.6129624,
      "tags": {
        "name": "Stores",
        "shop": "convenience"
      }
    },
    {
      "type": "node",
      "id": 2344432001,
      "lat": 6.338491,
      "lon": 5.6149733,
      "tags": {
        "name": "Mechanic Workshop",
        "shop": "car_repair"
      }
    },
    {
      "type": "node",
      "id": 2344432002,
      "lat": 6.3399414,
      "lon": 5.6141018,
      "tags": {
        "name": "Mechanic Workshop",
        "shop": "car_repair"
      }
    },
    {
      "type": "node",
      "id": 2344432004,
      "lat": 6.3377512,
      "lon": 5.6120342,
      "tags": {
        "name": "Shopping Complex & Offices",
        "shop": "mall"
      }
    },
    {
      "type": "node",
      "id": 2344432005,
      "lat": 6.3385044,
      "lon": 5.6109491,
      "tags": {
        "name": "Shopping Mall",
        "operator": "Erhunmun Shopping & Office",
        "shop": "mall"
      }
    },
    {
      "type": "node",
      "id": 2344432009,
      "lat": 6.3378312,
      "lon": 5.6122917,
      "tags": {
        "shop": "convenience"
      }
    },
    {
      "type": "node",
      "id": 2344432010,
      "lat": 6.3378424,
      "lon": 5.6113654,
      "tags": {
        "shop": "convenience"
      }
    },
    {
      "type": "node",
      "id": 2344432011,
      "lat": 6.3378763,
      "lon": 5.6126045,
      "tags": {
        "shop": "convenience"
      }
    },
    {
      "type": "node",
      "id": 2344432012,
      "lat": 6.3378982,
      "lon": 5.6151574,
      "tags": {
        "shop": "convenience"
      }
    },
    {
      "type": "node",
      "id": 2344432013,
      "lat": 6.3379141,
      "lon": 5.6113066,
      "tags": {
        "shop": "convenience"
      }
    },
    {
      "type": "node",
      "id": 2344432014,
      "lat": 6.3379502,
      "lon": 5.6129662,
      "tags": {
        "shop": "convenience"
      }
    },
    {
      "type": "node",
      "id": 2344432015,
      "lat": 6.3379578,
      "lon": 5.6149309,
      "tags": {
        "shop": "convenience"
      }
    },
    {
      "type": "node",
      "id": 2344432016,
      "lat": 6.3379723,
      "lon": 5.6131616,
      "tags": {
        "shop": "convenience"
      }
    },
    {
      "type": "node",
      "id": 2344432017,
      "lat": 6.3379907,
      "lon": 5.6134327,
      "tags": {
        "shop": "convenience"
      }
    },
    {
      "type": "node",
      "id": 2344432018,
      "lat": 6.3380093,
      "lon": 5.6132706,
      "tags": {
        "shop": "car_repair"
      }
    },
    {
      "type": "node",
      "id": 2344432019,
      "lat": 6.3380123,
      "lon": 5.6137547,
      "tags": {
        "shop": "convenience"
      }
    },
    {
      "type": "node",
      "id": 2344432020,
      "lat": 6.3380328,
      "lon": 5.6146267,
      "tags": {
        "shop": "convenience"
      }
    },
    {
      "type": "node",
      "id": 2344432021,
      "lat": 6.3380372,
      "lon": 5.6141094,
      "tags": {
        "shop": "convenience"
      }
    },
    {
      "type": "node",
      "id": 2344432022,
      "lat": 6.3380465,
      "lon": 5.61119,
      "tags": {
        "shop": "convenience"
      }
    },
    {
      "type": "node",
      "id": 2344432023,
      "lat": 6.3380482,
      "lon": 5.6144114,
      "tags": {
        "shop": "convenience"
      }
    },
    {
      "type": "node",
      "id": 2344432025,
      "lat": 6.3381408,
      "lon": 5.6148365,
      "tags": {
        "shop": "convenience"
      }
    },
    {
      "type": "node",
      "id": 2344432026,
      "lat": 6.3381536,
      "lon": 5.613863,
      "tags": {
        "shop": "convenience"
      }
    },
    {
      "type": "node",
      "id": 2344432027,
      "lat": 6.3382315,
      "lon": 5.6149801,
      "tags": {
        "shop": "convenience"
      }
    },
    {
      "type": "node",
      "id": 2344432028,
      "lat": 6.3383195,
      "lon": 5.6150258,
      "tags": {
        "shop": "convenience"
      }
    },
    {
      "type": "node",
      "id": 2344432030,
      "lat": 6.3386832,
      "lon": 5.6108625,
      "tags": {
        "shop": "convenience"
      }
    },
    {
      "type": "node",
      "id": 2344432031,
      "lat": 6.3388408,
      "lon": 5.613568,
      "tags": {
        "shop": "convenience"
      }
    },
    {
      "type": "node",
      "id": 2344432032,
      "lat": 6.3388423,
      "lon": 5.6149879,
      "tags": {
        "shop": "convenience"
      }
    },
    {
      "type": "node",
      "id": 2344432033,
      "lat": 6.3388987,
      "lon": 5.6108436,
      "tags": {
        "shop": "car_repair"
      }
    },
    {
      "type": "node",
      "id": 2344432034,
      "lat": 6.3390148,
      "lon": 5.6148657,
      "tags": {
        "shop": "convenience"
      }
    },
    {
      "type": "node",
      "id": 2344432036,
      "lat": 6.3394437,
      "lon": 5.6137498,
      "tags": {
        "shop": "convenience"
      }
    },
    {
      "type": "node",
      "id": 2344432037,
      "lat": 6.3397903,
      "lon": 5.6142886,
      "tags": {
        "shop": "convenience"
      }
    },
    {
      "type": "node",
      "id": 2344432038,
      "lat": 6.3401048,
      "lon": 5.6140922,
      "tags": {
        "shop": "convenience"
      }
    },
    {
      "type": "node",
      "id": 2344432039,
      "lat": 6.3402209,
      "lon": 5.6140104,
      "tags": {
        "shop": "convenience"
      }
    },
    {
      "type": "node",
      "id": 2344432040,
      "lat": 6.3404091,
      "lon": 5.6139193,
      "tags": {
        "shop": "convenience"
      }
    },
    {
      "type": "node",
      "id": 2344466063,
      "lat": 6.3274016,
      "lon": 5.6272159,
      "tags": {
        "name": "Mechanic Workshop",
        "shop": "car_repair"
      }
    },
    {
      "type": "node",
      "id": 2344466065,
      "lat": 6.3266538,
      "lon": 5.6249398,
      "tags": {
        "name": "Patanne medical equipment shop",
        "shop": "mall"
      }
    },
    {
      "type": "node",
      "id": 2344466070,
      "lat": 6.3253438,
      "lon": 5.6257186,
      "tags": {
        "shop": "mall"
      }
    },
    {
      "type": "node",
      "id": 2344466071,
      "lat": 6.3262017,
      "lon": 5.6251484,
      "tags": {
        "shop": "mall"
      }
    },
    {
      "type": "node",
      "id": 2344466072,
      "lat": 6.3267928,
      "lon": 5.6257475,
      "tags": {
        "shop": "mall"
      }
    },
    {
      "type": "node",
      "id": 2344466073,
      "lat": 6.3272228,
      "lon": 5.6258962,
      "tags": {
        "shop": "mall"
      }
    },
    {
      "type": "node",
      "id": 2344466074,
      "lat": 6.3272537,
      "lon": 5.6261646,
      "tags": {
        "shop": "mall"
      }
    },
    {
      "type": "node",
      "id": 2344466078,
      "lat": 6.3297624,
      "lon": 5.6267698,
      "tags": {
        "name": "Sunroni bussiness center",
        "shop": "mall"
      }
    },
    {
      "type": "node",
      "id": 2344466084,
      "lat": 6.3281072,
      "lon": 5.6241754,
      "tags": {
        "shop": "computer"
      }
    },
    {
      "type": "node",
      "id": 2344466085,
      "lat": 6.3290805,
      "lon": 5.6275816,
      "tags": {
        "shop": "mall"
      }
    },
    {
      "type": "node",
      "id": 2344466086,
      "lat": 6.329279,
      "lon": 5.6273409,
      "tags": {
        "shop": "mall"
      }
    },
    {
      "type": "node",
      "id": 2344468678,
      "lat": 6.3438346,
      "lon": 5.6071119,
      "tags": {
        "name": "U & I Medicine store",
        "shop": "chemist"
      }
    },
    {
      "type": "node",
      "id": 2344503119,
      "lat": 6.3296614,
      "lon": 5.5935673,
      "tags": {
        "description": "building material",
        "name": "Block Industry",
        "shop": "hardware"
      }
    },
    {
      "type": "node",
      "id": 2344503122,
      "lat": 6.3300451,
      "lon": 5.5928558,
      "tags": {
        "name": "Edith International Boutique",
        "shop": "boutique"
      }
    },
    {
      "type": "node",
      "id": 2344503124,
      "lat": 6.332273,
      "lon": 5.5934018,
      "tags": {
        "name": "Hair Dressing Salon",
        "shop": "hairdresser"
      }
    },
    {
      "type": "node",
      "id": 2344503133,
      "lat": 6.3295596,
      "lon": 5.5933358,
      "tags": {
        "shop": "convenience"
      }
    },
    {
      "type": "node",
      "id": 2344503134,
      "lat": 6.3296577,
      "lon": 5.5921649,
      "tags": {
        "shop": "car_repair"
      }
    },
    {
      "type": "node",
      "id": 2344503135,
      "lat": 6.3297021,
      "lon": 5.5940511,
      "tags": {
        "shop": "convenience"
      }
    },
    {
      "type": "node",
      "id": 2344503136,
      "lat": 6.3301202,
      "lon": 5.5947172,
      "tags": {
        "shop": "convenience"
      }
    },
    {
      "type": "node",
      "id": 2344503137,
      "lat": 6.330217,
      "lon": 5.594466,
      "tags": {
        "shop": "convenience"
      }
    },
    {
      "type": "node",
      "id": 2344503138,
      "lat": 6.3302532,
      "lon": 5.5942379,
      "tags": {
        "shop": "car_repair"
      }
    },
    {
      "type": "node",
      "id": 2344503139,
      "lat": 6.3304536,
      "lon": 5.594347,
      "tags": {
        "shop": "convenience"
      }
    },
    {
      "type": "node",
      "id": 2344503140,
      "lat": 6.3308327,
      "lon": 5.5925409,
      "tags": {
        "shop": "convenience"
      }
    },
    {
      "type": "node",
      "id": 2344503142,
      "lat": 6.331295,
      "lon": 5.5939721,
      "tags": {
        "shop": "convenience"
      }
    },
    {
      "type": "node",
      "id": 2344503144,
      "lat": 6.3316103,
      "lon": 5.5926106,
      "tags": {
        "shop": "car_repair"
      }
    },
    {
      "type": "node",
      "id": 2344503145,
      "lat": 6.3317496,
      "lon": 5.5934374,
      "tags": {
        "shop": "convenience"
      }
    },
    {
      "type": "node",
      "id": 2344503146,
      "lat": 6.3318619,
      "lon": 5.5937173,
      "tags": {
        "shop": "car_repair"
      }
    },
    {
      "type": "node",
      "id": 2344503147,
      "lat": 6.3323114,
      "lon": 5.5928904,
      "tags": {
        "description": "coldroom or freezer",
        "shop": "yes"
      }
    },
    {
      "type": "node",
      "id": 2344503148,
      "lat": 6.3325843,
      "lon": 5.5934228,
      "tags": {
        "description": "unofficial",
        "shop": "convenience"
      }
    },
    {
      "type": "node",
      "id": 2344503149,
      "lat": 6.332995,
      "lon": 5.5941227,
      "tags": {
        "shop": "convenience"
      }
    },
    {
      "type": "node",
      "id": 2344503150,
      "lat": 6.3333109,
      "lon": 5.5939778,
      "tags": {
        "shop": "convenience"
      }
    },
    {
      "type": "node",
      "id": 2344503151,
      "lat": 6.3337151,
      "lon": 5.5933748,
      "tags": {
        "shop": "convenience"
      }
    },
    {
      "type": "node",
      "id": 2344512202,
      "lat": 6.3348133,
      "lon": 5.6188545,
      "tags": {
        "name": "Asemota Shopping Plaza",
        "shop": "mall"
      }
    },
    {
      "type": "node",
      "id": 2344512207,
      "lat": 6.3329689,
      "lon": 5.6186692,
      "tags": {
        "name": "Benin Attire Store",
        "shop": "convenience"
      }
    },
    {
      "type": "node",
      "id": 2344512234,
      "lat": 6.3314969,
      "lon": 5.615555,
      "tags": {
        "name": "Mechanic Workshop",
        "shop": "car_repair"
      }
    },
    {
      "type": "node",
      "id": 2344512239,
      "lat": 6.3333103,
      "lon": 5.6168701,
      "tags": {
        "name": "Mechanic Workshop",
        "shop": "car_repair"
      }
    },
    {
      "type": "node",
      "id": 2344512265,
      "lat": 6.3359506,
      "lon": 5.6199977,
      "tags": {
        "name": "Shopping complex",
        "shop": "mall"
      }
    },
    {
      "type": "node",
      "id": 2344512269,
      "lat": 6.329985,
      "lon": 5.6191386,
      "tags": {
        "shop": "convenience"
      }
    },
    {
      "type": "node",
      "id": 2344540214,
      "lat": 6.3236193,
      "lon": 5.5915662,
      "tags": {
        "name": "Block Of Shops",
        "shop": "convenience"
      }
    },
    {
      "type": "node",
      "id": 2344540215,
      "lat": 6.3238104,
      "lon": 5.5939046,
      "tags": {
        "name": "Chemist Store",
        "shop": "chemist"
      }
    },
    {
      "type": "node",
      "id": 2344540220,
      "lat": 6.3230704,
      "lon": 5.5917533,
      "tags": {
        "brand": "Bez Mechanic",
        "name": "Godwin Technical Workshop",
        "shop": "car_repair"
      }
    },
    {
      "type": "node",
      "id": 2344540231,
      "lat": 6.3233381,
      "lon": 5.5910175,
      "tags": {
        "shop": "car_repair"
      }
    },
    {
      "type": "node",
      "id": 2344540233,
      "lat": 6.3206048,
      "lon": 5.5923475,
      "tags": {
        "name": "shops",
        "shop": "convenience"
      }
    },
    {
      "type": "node",
      "id": 2344540234,
      "lat": 6.3207223,
      "lon": 5.592355,
      "tags": {
        "name": "shops",
        "shop": "convenience"
      }
    },
    {
      "type": "node",
      "id": 2344540235,
      "lat": 6.3212195,
      "lon": 5.593132,
      "tags": {
        "name": "shops",
        "shop": "convenience"
      }
    },
    {
      "type": "node",
      "id": 2344543056,
      "lat": 6.3361662,
      "lon": 5.6096479,
      "tags": {
        "name": "Tessy Beauty World",
        "shop": "beauty"
      }
    },
    {
      "type": "node",
      "id": 2344543057,
      "lat": 6.3359693,
      "lon": 5.6129277,
      "tags": {
        "shop": "convenience"
      }
    },
    {
      "type": "node",
      "id": 2344543058,
      "lat": 6.336095,
      "lon": 5.612746,
      "tags": {
        "shop": "convenience"
      }
    },
    {
      "type": "node",
      "id": 2344543063,
      "lat": 6.3377376,
      "lon": 5.6128056,
      "tags": {
        "shop": "convenience"
      }
    },
    {
      "type": "node",
      "id": 2344543065,
      "lat": 6.3357359,
      "lon": 5.6090609,
      "tags": {
        "name": "vacant bank building",
        "shop": "vacant"
      }
    },
    {
      "type": "node",
      "id": 2344554563,
      "lat": 6.3256426,
      "lon": 5.6185933,
      "tags": {
        "name": "Bob Mechanic Workshop",
        "shop": "car_repair"
      }
    },
    {
      "type": "node",
      "id": 2344554598,
      "lat": 6.3250416,
      "lon": 5.615258,
      "tags": {
        "shop": "convenience"
      }
    },
    {
      "type": "node",
      "id": 2344554620,
      "lat": 6.3295437,
      "lon": 5.6192888,
      "tags": {
        "shop": "convenience"
      }
    },
    {
      "type": "node",
      "id": 2344584254,
      "lat": 6.3379054,
      "lon": 5.5961921,
      "tags": {
        "name": "Chemist Store",
        "shop": "chemist"
      }
    },
    {
      "type": "node",
      "id": 2344584282,
      "lat": 6.3370585,
      "lon": 5.5958492,
      "tags": {
        "name": "Ehigiator Motors",
        "shop": "car"
      }
    },
    {
      "type": "node",
      "id": 2344584309,
      "lat": 6.3368045,
      "lon": 5.5961775,
      "tags": {
        "name": "Stores",
        "shop": "convenience"
      }
    },
    {
      "type": "node",
      "id": 2344584312,
      "lat": 6.3368496,
      "lon": 5.5945822,
      "tags": {
        "name": "Stores",
        "shop": "convenience"
      }
    },
    {
      "type": "node",
      "id": 2344584315,
      "lat": 6.3380706,
      "lon": 5.5962461,
      "tags": {
        "name": "Stores",
        "shop": "convenience"
      }
    },
    {
      "type": "node",
      "id": 2344584319,
      "lat": 6.3401017,
      "lon": 5.5977634,
      "tags": {
        "name": "Stores",
        "shop": "convenience"
      }
    },
    {
      "type": "node",
      "id": 2344590785,
      "lat": 6.3290727,
      "lon": 5.5851802,
      "tags": {
        "name": "Good Trust Motors",
        "shop": "car_repair"
      }
    },
    {
      "type": "node",
      "id": 2344590793,
      "lat": 6.3279677,
      "lon": 5.5820351,
      "tags": {
        "name": "Mechanic workshop",
        "shop": "car_repair"
      }
    },
    {
      "type": "node",
      "id": 2344590799,
      "lat": 6.3295769,
      "lon": 5.5868335,
      "tags": {
        "name": "Shopping Mall",
        "shop": "mall"
      }
    },
    {
      "type": "node",
      "id": 2344590800,
      "lat": 6.3275222,
      "lon": 5.5803512,
      "tags": {
        "name": "Shops",
        "shop": "convenience"
      }
    },
    {
      "type": "node",
      "id": 2344596605,
      "lat": 6.3424726,
      "lon": 5.6058746,
      "tags": {
        "name": "Mechanic Workshop",
        "shop": "car_repair"
      }
    },
    {
      "type": "node",
      "id": 2344596606,
      "lat": 6.3430977,
      "lon": 5.607128,
      "tags": {
        "name": "Mechanic Workshop",
        "shop": "car_repair"
      }
    },
    {
      "type": "node",
      "id": 2344596607,
      "lat": 6.3431442,
      "lon": 5.6044277,
      "tags": {
        "name": "Mechanic Workshop",
        "shop": "car_repair"
      }
    },
    {
      "type": "node",
      "id": 2344596608,
      "lat": 6.3429276,
      "lon": 5.609902,
      "tags": {
        "name": "Merrigold Plaza",
        "shop": "mall"
      }
    },
    {
      "type": "node",
      "id": 2344596616,
      "lat": 6.3422012,
      "lon": 5.6099261,
      "tags": {
        "name": "Shopping Mall",
        "shop": "mall"
      }
    },
    {
      "type": "node",
      "id": 2344596617,
      "lat": 6.3409265,
      "lon": 5.6097872,
      "tags": {
        "name": "Shops",
        "shop": "convenience"
      }
    },
    {
      "type": "node",
      "id": 2344596618,
      "lat": 6.3422586,
      "lon": 5.6092572,
      "tags": {
        "name": "Shops",
        "shop": "convenience"
      }
    },
    {
      "type": "node",
      "id": 2344596619,
      "lat": 6.3426505,
      "lon": 5.606569,
      "tags": {
        "name": "Shops",
        "shop": "convenience"
      }
    },
    {
      "type": "node",
      "id": 2344596620,
      "lat": 6.3426809,
      "lon": 5.609292,
      "tags": {
        "name": "Shops",
        "shop": "tailor"
      }
    },
    {
      "type": "node",
      "id": 2344596621,
      "lat": 6.3426864,
      "lon": 5.6092462,
      "tags": {
        "name": "Shops",
        "shop": "convenience"
      }
    },
    {
      "type": "node",
      "id": 2344596622,
      "lat": 6.3428393,
      "lon": 5.6093442,
      "tags": {
        "name": "Shops",
        "shop": "convenience"
      }
    },
    {
      "type": "node",
      "id": 2344596623,
      "lat": 6.3429404,
      "lon": 5.6087526,
      "tags": {
        "name": "Shops",
        "shop": "convenience"
      }
    },
    {
      "type": "node",
      "id": 2344596624,
      "lat": 6.3430191,
      "lon": 5.6056314,
      "tags": {
        "name": "Shops",
        "shop": "convenience"
      }
    },
    {
      "type": "node",
      "id": 2344596625,
      "lat": 6.3431507,
      "lon": 5.6047193,
      "tags": {
        "name": "Shops",
        "shop": "electronics"
      }
    },
    {
      "type": "node",
      "id": 2345400482,
      "lat": 6.3508236,
      "lon": 5.6105253,
      "tags": {
        "shop": "bakery"
      }
    },
    {
      "type": "node",
      "id": 2349297905,
      "lat": 6.323292,
      "lon": 5.6120401,
      "tags": {
        "name": "Jesunogie",
        "shop": "supermarket"
      }
    },
    {
      "type": "node",
      "id": 2349297906,
      "lat": 6.3247777,
      "lon": 5.6142507,
      "tags": {
        "name": "Nokia Shop",
        "shop": "convenience"
      }
    },
    {
      "type": "node",
      "id": 2349297907,
      "lat": 6.3223536,
      "lon": 5.6105617,
      "tags": {
        "name": "Osayi Motors",
        "shop": "car"
      }
    },
    {
      "type": "node",
      "id": 2349297909,
      "lat": 6.3229933,
      "lon": 5.6115429,
      "tags": {
        "name": "Pee Beauty,Skin & Spa",
        "shop": "hairdresser"
      }
    },
    {
      "type": "node",
      "id": 2349297910,
      "lat": 6.3240895,
      "lon": 5.6132229,
      "tags": {
        "name": "Phones Shops",
        "shop": "convenience"
      }
    },
    {
      "type": "node",
      "id": 2349297911,
      "lat": 6.3245588,
      "lon": 5.6138846,
      "tags": {
        "name": "Phones Shops",
        "shop": "convenience"
      }
    },
    {
      "type": "node",
      "id": 2349297916,
      "lat": 6.3242659,
      "lon": 5.6134309,
      "tags": {
        "name": "Shopping Complex",
        "shop": "convenience"
      }
    },
    {
      "type": "node",
      "id": 2349297917,
      "lat": 6.3243947,
      "lon": 5.6120424,
      "tags": {
        "name": "Shops Complex",
        "shop": "convenience"
      }
    },
    {
      "type": "node",
      "id": 2349297918,
      "lat": 6.3263805,
      "lon": 5.6121071,
      "tags": {
        "name": "Shops Complex",
        "shop": "convenience"
      }
    },
    {
      "type": "node",
      "id": 2349297919,
      "lat": 6.3246269,
      "lon": 5.6117598,
      "tags": {
        "shop": "convenience"
      }
    },
    {
      "type": "node",
      "id": 2349397483,
      "lat": 6.3376113,
      "lon": 5.6155552,
      "tags": {
        "name": "Aye Shopping Mall",
        "shop": "mall"
      }
    },
    {
      "type": "node",
      "id": 2349397484,
      "lat": 6.3358399,
      "lon": 5.6134961,
      "tags": {
        "name": "Block of Shops",
        "shop": "convenience"
      }
    },
    {
      "type": "node",
      "id": 2349397485,
      "lat": 6.3372773,
      "lon": 5.6145077,
      "tags": {
        "name": "Block of Shops",
        "shop": "variety_store"
      }
    },
    {
      "type": "node",
      "id": 2349397486,
      "lat": 6.3353026,
      "lon": 5.6139592,
      "tags": {
        "name": "Blocks of Shops",
        "shop": "convenience"
      }
    },
    {
      "type": "node",
      "id": 2349397494,
      "lat": 6.3349244,
      "lon": 5.6160837,
      "tags": {
        "name": "Mechanic Workshop",
        "shop": "car_repair"
      }
    },
    {
      "type": "node",
      "id": 2349397495,
      "lat": 6.3370722,
      "lon": 5.6145793,
      "tags": {
        "name": "Mechanic Workshop",
        "shop": "car_repair"
      }
    },
    {
      "type": "node",
      "id": 2349397496,
      "lat": 6.3376033,
      "lon": 5.6147215,
      "tags": {
        "name": "Mechanic Workshop",
        "shop": "car_repair"
      }
    },
    {
      "type": "node",
      "id": 2349397498,
      "lat": 6.3375015,
      "lon": 5.6159445,
      "tags": {
        "name": "Shopping plaza",
        "shop": "mall"
      }
    },
    {
      "type": "node",
      "id": 2349397500,
      "lat": 6.3344977,
      "lon": 5.6156507,
      "tags": {
        "name": "Stores",
        "shop": "convenience"
      }
    },
    {
      "type": "node",
      "id": 2349397501,
      "lat": 6.3347324,
      "lon": 5.6154577,
      "tags": {
        "name": "Stores",
        "shop": "convenience"
      }
    },
    {
      "type": "node",
      "id": 2349397502,
      "lat": 6.3360104,
      "lon": 5.6165609,
      "tags": {
        "name": "Stores",
        "shop": "variety_store"
      }
    },
    {
      "type": "node",
      "id": 2349397503,
      "lat": 6.3363661,
      "lon": 5.6142426,
      "tags": {
        "name": "Stores",
        "shop": "variety_store"
      }
    },
    {
      "type": "node",
      "id": 2349397504,
      "lat": 6.3367399,
      "lon": 5.6169608,
      "tags": {
        "name": "Stores",
        "shop": "variety_store"
      }
    },
    {
      "type": "node",
      "id": 2349397505,
      "lat": 6.3370349,
      "lon": 5.6169219,
      "tags": {
        "name": "Stores",
        "shop": "variety_store"
      }
    },
    {
      "type": "node",
      "id": 2349397506,
      "lat": 6.3377887,
      "lon": 5.6150134,
      "tags": {
        "name": "Stores",
        "shop": "variety_store"
      }
    },
    {
      "type": "node",
      "id": 2349397510,
      "lat": 6.3344547,
      "lon": 5.6148822,
      "tags": {
        "name": "m",
        "shop": "car_repair"
      }
    },
    {
      "type": "node",
      "id": 2349424007,
      "lat": 6.3490852,
      "lon": 5.6290974,
      "tags": {
        "name": "Cold Room",
        "shop": "seafood"
      }
    },
    {
      "type": "node",
      "id": 2349424008,
      "lat": 6.3497749,
      "lon": 5.6279617,
      "tags": {
        "name": "Cold Room",
        "shop": "seafood"
      }
    },
    {
      "type": "node",
      "id": 2349424009,
      "lat": 6.3509479,
      "lon": 5.628936,
      "tags": {
        "name": "Cold Room",
        "shop": "seafood"
      }
    },
    {
      "type": "node",
      "id": 2349424010,
      "lat": 6.3510261,
      "lon": 5.6289209,
      "tags": {
        "name": "Cold Room",
        "shop": "seafood"
      }
    },
    {
      "type": "node",
      "id": 2349424017,
      "lat": 6.3497184,
      "lon": 5.6309315,
      "tags": {
        "name": "Stores",
        "shop": "convenience"
      }
    },
    {
      "type": "node",
      "id": 2349424018,
      "lat": 6.3511795,
      "lon": 5.6258664,
      "tags": {
        "name": "Stores",
        "shop": "convenience"
      }
    },
    {
      "type": "node",
      "id": 2349424019,
      "lat": 6.35452,
      "lon": 5.6260038,
      "tags": {
        "name": "Stores",
        "shop": "convenience"
      }
    },
    {
      "type": "node",
      "id": 2349475728,
      "lat": 6.3484364,
      "lon": 5.6309771,
      "tags": {
        "name": "Electronic stores",
        "shop": "electronics"
      }
    },
    {
      "type": "node",
      "id": 2349475742,
      "lat": 6.3440453,
      "lon": 5.6316951,
      "tags": {
        "name": "LAPO Office",
        "shop": "variety_store"
      }
    },
    {
      "type": "node",
      "id": 2349477424,
      "lat": 6.3404178,
      "lon": 5.6296114,
      "tags": {
        "name": "Avbiogbe equity villa",
        "shop": "convenience"
      }
    },
    {
      "type": "node",
      "id": 2349477425,
      "lat": 6.3420995,
      "lon": 5.6275897,
      "tags": {
        "name": "Building materials",
        "shop": "trade"
      }
    },
    {
      "type": "node",
      "id": 2349477440,
      "lat": 6.3395398,
      "lon": 5.6305649,
      "tags": {
        "shop": "convenience"
      }
    },
    {
      "type": "node",
      "id": 2349477448,
      "lat": 6.3376484,
      "lon": 5.6286959,
      "tags": {
        "name": "electronic stores",
        "shop": "electronics"
      }
    },
    {
      "type": "node",
      "id": 2349477449,
      "lat": 6.338552,
      "lon": 5.6293266,
      "tags": {
        "name": "electronic stores",
        "shop": "electronics"
      }
    },
    {
      "type": "node",
      "id": 2349477450,
      "lat": 6.3407582,
      "lon": 5.6285105,
      "tags": {
        "shop": "motorcycle"
      }
    },
    {
      "type": "node",
      "id": 2349477451,
      "lat": 6.3407974,
      "lon": 5.628287,
      "tags": {
        "shop": "motorcycle"
      }
    },
    {
      "type": "node",
      "id": 2349477452,
      "lat": 6.3413034,
      "lon": 5.6285966,
      "tags": {
        "shop": "trade"
      }
    },
    {
      "type": "node",
      "id": 2349477454,
      "lat": 6.3416175,
      "lon": 5.6281994,
      "tags": {
        "shop": "convenience"
      }
    },
    {
      "type": "node",
      "id": 2349477455,
      "lat": 6.3418979,
      "lon": 5.6278484,
      "tags": {
        "name": "stors",
        "shop": "convenience"
      }
    },
    {
      "type": "node",
      "id": 2349483346,
      "lat": 6.3311628,
      "lon": 5.6135151,
      "tags": {
        "name": "Block Of Stores",
        "shop": "convenience"
      }
    },
    {
      "type": "node",
      "id": 2349483347,
      "lat": 6.3315707,
      "lon": 5.61273,
      "tags": {
        "name": "Block Of Stores",
        "shop": "convenience"
      }
    },
    {
      "type": "node",
      "id": 2349483348,
      "lat": 6.3323216,
      "lon": 5.6117592,
      "tags": {
        "name": "Block Of Stores",
        "shop": "convenience"
      }
    },
    {
      "type": "node",
      "id": 2349483349,
      "lat": 6.3326505,
      "lon": 5.6115262,
      "tags": {
        "name": "Block Of Stores",
        "shop": "convenience"
      }
    },
    {
      "type": "node",
      "id": 2349483350,
      "lat": 6.3338988,
      "lon": 5.6166533,
      "tags": {
        "name": "Block Of Stores",
        "shop": "convenience"
      }
    },
    {
      "type": "node",
      "id": 2349483351,
      "lat": 6.3342624,
      "lon": 5.6164918,
      "tags": {
        "name": "Block Of Stores",
        "shop": "convenience"
      }
    },
    {
      "type": "node",
      "id": 2349483352,
      "lat": 6.3313511,
      "lon": 5.6132161,
      "tags": {
        "name": "Block of Shops",
        "shop": "convenience"
      }
    },
    {
      "type": "node",
      "id": 2349483353,
      "lat": 6.3346596,
      "lon": 5.6150021,
      "tags": {
        "name": "Bobizua Shopping Mall",
        "shop": "mall"
      }
    },
    {
      "type": "node",
      "id": 2349483355,
      "lat": 6.3315083,
      "lon": 5.6154029,
      "tags": {
        "name": "Mechanic Workshop",
        "shop": "car_repair"
      }
    },
    {
      "type": "node",
      "id": 2349483356,
      "lat": 6.3335975,
      "lon": 5.6163402,
      "tags": {
        "name": "Mechanic Workshop",
        "shop": "car_repair"
      }
    },
    {
      "type": "node",
      "id": 2349483357,
      "lat": 6.3339475,
      "lon": 5.6147376,
      "tags": {
        "name": "Mechanic Workshop",
        "shop": "car_repair"
      }
    },
    {
      "type": "node",
      "id": 2349483359,
      "lat": 6.3336042,
      "lon": 5.6146504,
      "tags": {
        "name": "Shopping Mall",
        "shop": "mall"
      }
    },
    {
      "type": "node",
      "id": 2349483360,
      "lat": 6.3343122,
      "lon": 5.6149149,
      "tags": {
        "name": "Shopping Mall",
        "shop": "mall"
      }
    },
    {
      "type": "node",
      "id": 2350807718,
      "lat": 6.3513923,
      "lon": 5.6179762,
      "tags": {
        "name": "Mechanic Workshop",
        "shop": "car_repair"
      }
    },
    {
      "type": "node",
      "id": 2350807719,
      "lat": 6.3514342,
      "lon": 5.6186041,
      "tags": {
        "shop": "mall"
      }
    },
    {
      "type": "node",
      "id": 2350807720,
      "lat": 6.3516245,
      "lon": 5.6184908,
      "tags": {
        "shop": "mall"
      }
    },
    {
      "type": "node",
      "id": 2350807721,
      "lat": 6.3523702,
      "lon": 5.6163237,
      "tags": {
        "shop": "mall"
      }
    },
    {
      "type": "node",
      "id": 2350879765,
      "lat": 6.3354733,
      "lon": 5.6229325,
      "tags": {
        "shop": "convenience"
      }
    },
    {
      "type": "node",
      "id": 2350879766,
      "lat": 6.3356906,
      "lon": 5.6219307,
      "tags": {
        "shop": "convenience"
      }
    },
    {
      "type": "node",
      "id": 2350879767,
      "lat": 6.335895,
      "lon": 5.6231798,
      "tags": {
        "shop": "convenience"
      }
    },
    {
      "type": "node",
      "id": 2350879768,
      "lat": 6.3365999,
      "lon": 5.6228652,
      "tags": {
        "shop": "convenience"
      }
    },
    {
      "type": "node",
      "id": 2350879769,
      "lat": 6.3366075,
      "lon": 5.6229361,
      "tags": {
        "shop": "convenience"
      }
    },
    {
      "type": "node",
      "id": 2350879770,
      "lat": 6.3369654,
      "lon": 5.6235015,
      "tags": {
        "shop": "convenience"
      }
    },
    {
      "type": "node",
      "id": 2350879771,
      "lat": 6.3373504,
      "lon": 5.6240018,
      "tags": {
        "shop": "convenience"
      }
    },
    {
      "type": "node",
      "id": 2350879772,
      "lat": 6.3385982,
      "lon": 5.6246973,
      "tags": {
        "shop": "convenience"
      }
    },
    {
      "type": "node",
      "id": 2350879773,
      "lat": 6.3388692,
      "lon": 5.6248436,
      "tags": {
        "shop": "convenience"
      }
    },
    {
      "type": "node",
      "id": 2350879774,
      "lat": 6.3392657,
      "lon": 5.6250724,
      "tags": {
        "shop": "convenience"
      }
    },
    {
      "type": "node",
      "id": 2350879775,
      "lat": 6.3392952,
      "lon": 5.6229622,
      "tags": {
        "shop": "convenience"
      }
    },
    {
      "type": "node",
      "id": 2350879776,
      "lat": 6.3393639,
      "lon": 5.6230938,
      "tags": {
        "shop": "convenience"
      }
    },
    {
      "type": "node",
      "id": 2350879777,
      "lat": 6.3400496,
      "lon": 5.6255605,
      "tags": {
        "shop": "convenience"
      }
    },
    {
      "type": "node",
      "id": 2350879778,
      "lat": 6.340249,
      "lon": 5.6253949,
      "tags": {
        "shop": "convenience"
      }
    },
    {
      "type": "node",
      "id": 2350879779,
      "lat": 6.3407634,
      "lon": 5.6260619,
      "tags": {
        "shop": "convenience"
      }
    },
    {
      "type": "node",
      "id": 2350879780,
      "lat": 6.3411917,
      "lon": 5.6262867,
      "tags": {
        "shop": "convenience"
      }
    },
    {
      "type": "node",
      "id": 2350879781,
      "lat": 6.3422782,
      "lon": 5.6270075,
      "tags": {
        "shop": "convenience"
      }
    },
    {
      "type": "node",
      "id": 2350879782,
      "lat": 6.3441195,
      "lon": 5.6279146,
      "tags": {
        "shop": "convenience"
      }
    },
    {
      "type": "node",
      "id": 2350879783,
      "lat": 6.3443531,
      "lon": 5.626334,
      "tags": {
        "shop": "convenience"
      }
    },
    {
      "type": "node",
      "id": 2350879784,
      "lat": 6.34457,
      "lon": 5.6262431,
      "tags": {
        "shop": "convenience"
      }
    },
    {
      "type": "node",
      "id": 2350879785,
      "lat": 6.3450011,
      "lon": 5.6260457,
      "tags": {
        "shop": "convenience"
      }
    },
    {
      "type": "node",
      "id": 2350879786,
      "lat": 6.3451783,
      "lon": 5.628541,
      "tags": {
        "shop": "convenience"
      }
    },
    {
      "type": "node",
      "id": 2350879787,
      "lat": 6.3454426,
      "lon": 5.6255755,
      "tags": {
        "shop": "convenience"
      }
    },
    {
      "type": "node",
      "id": 2350879788,
      "lat": 6.3456388,
      "lon": 5.627729,
      "tags": {
        "shop": "convenience"
      }
    },
    {
      "type": "node",
      "id": 2350879789,
      "lat": 6.3457031,
      "lon": 5.6288961,
      "tags": {
        "shop": "convenience"
      }
    },
    {
      "type": "node",
      "id": 2350879790,
      "lat": 6.3457269,
      "lon": 5.6286926,
      "tags": {
        "shop": "convenience"
      }
    },
    {
      "type": "node",
      "id": 2350899845,
      "lat": 6.3424301,
      "lon": 5.6195557,
      "tags": {
        "name": "Ages Chariot Ltd",
        "shop": "furniture"
      }
    },
    {
      "type": "node",
      "id": 2350899848,
      "lat": 6.3466231,
      "lon": 5.624107,
      "tags": {
        "name": "Blocks of Shops",
        "shop": "department_store"
      }
    },
    {
      "type": "node",
      "id": 2350899849,
      "lat": 6.353842,
      "lon": 5.6192051,
      "tags": {
        "name": "Blocks of Shops",
        "shop": "department_store"
      }
    },
    {
      "type": "node",
      "id": 2350899860,
      "lat": 6.3490638,
      "lon": 5.621576,
      "tags": {
        "name": "Ero Shopping Mall",
        "shop": "mall"
      }
    },
    {
      "type": "node",
      "id": 2350899868,
      "lat": 6.3533694,
      "lon": 5.6193857,
      "tags": {
        "name": "J.Best Global Ventures",
        "shop": "furniture"
      }
    },
    {
      "type": "node",
      "id": 2350899878,
      "lat": 6.3504512,
      "lon": 5.6191239,
      "tags": {
        "name": "Samotaca Nigeria Ltd",
        "shop": "electronics"
      }
    },
    {
      "type": "node",
      "id": 2350899901,
      "lat": 6.3432637,
      "lon": 5.6195413,
      "tags": {
        "name": "Ultimate Joe Ltd",
        "shop": "furniture"
      }
    },
    {
      "type": "node",
      "id": 2350899905,
      "lat": 6.3507022,
      "lon": 5.6205916,
      "tags": {
        "name": "Vicab Unique Integrated Company",
        "shop": "furniture"
      }
    },
    {
      "type": "node",
      "id": 2350920096,
      "lat": 6.3414629,
      "lon": 5.6194575,
      "tags": {
        "name": "Blocks of Stores",
        "shop": "convenience"
      }
    },
    {
      "type": "node",
      "id": 2351090124,
      "lat": 6.3407032,
      "lon": 5.6308885,
      "tags": {
        "name": "Edo Walfare Chemist",
        "shop": "chemist"
      }
    },
    {
      "type": "node",
      "id": 2351090138,
      "lat": 6.3349612,
      "lon": 5.622651,
      "tags": {
        "shop": "convenience"
      }
    },
    {
      "type": "node",
      "id": 2351090139,
      "lat": 6.3352502,
      "lon": 5.6258772,
      "tags": {
        "shop": "convenience"
      }
    },
    {
      "type": "node",
      "id": 2351090140,
      "lat": 6.3356619,
      "lon": 5.6243564,
      "tags": {
        "shop": "convenience"
      }
    },
    {
      "type": "node",
      "id": 2351090142,
      "lat": 6.3371819,
      "lon": 5.6253791,
      "tags": {
        "shop": "convenience"
      }
    },
    {
      "type": "node",
      "id": 2453679844,
      "lat": 7.4184493,
      "lon": 3.911149,
      "tags": {
        "addr:housenumber": "1",
        "addr:street": "Oluyole Way",
        "name": "Favos Supermarket",
        "shop": "supermarket"
      }
    },
    {
      "type": "node",
      "id": 2455133280,
      "lat": 6.472529,
      "lon": 7.501437,
      "tags": {
        "addr:housenumber": "9.0",
        "addr:street": "Ubabuike Close",
        "contact:phone": "8030992115",
        "fixme": "many bad keys",
        "height": "194.199997",
        "id": "POI001890",
        "image": "https://enugupoi.appspot.com/view/binaryData?blobKey=build_POI-Picture-Form_1374250655%5B%40version%3Dnull+and+%40uiVersion%3Dnull%5D%2Fdata%5B%40key%3Duuid%3A4d2da53f-47dc-4b94-8023-b5224d86c49f%5D%2FPOI_Picture1",
        "image:url": "https://enugupoi.appspot.com/view/binaryData?blobKey=build_POI-Picture-Form_1374250655%5B%40version%3Dnull+and+%40uiVersion%3Dnull%5D%2Fdata%5B%40key%3Duuid%3A4d2da53f-47dc-4b94-8023-b5224d86c49f%5D%2FPOI_Picture2",
        "location": "5.0",
        "name": "Maranatha Eye Center",
        "shop": "optician"
      }
    },
    {
      "type": "node",
      "id": 2455133360,
      "lat": 6.482949,
      "lon": 7.516629,
      "tags": {
        "addr:housenumber": "0.0",
        "addr:street": "Nike Road",
        "fixme": "many bad keys",
        "height": "196.600006",
        "id": "POI001941",
        "image": "https://enugupoi.appspot.com/view/binaryData?blobKey=build_POI-Picture-Form_1374250655%5B%40version%3Dnull+and+%40uiVersion%3Dnull%5D%2Fdata%5B%40key%3Duuid%3Abd16e2fa-1e11-4df1-b12a-5de4603e521f%5D%2FPOI_Picture1",
        "image:url": "https://enugupoi.appspot.com/view/binaryData?blobKey=build_POI-Picture-Form_1374250655%5B%40version%3Dnull+and+%40uiVersion%3Dnull%5D%2Fdata%5B%40key%3Duuid%3Abd16e2fa-1e11-4df1-b12a-5de4603e521f%5D%2FPOI_Picture2",
        "location": "5.0",
        "name": "Niger Optical (Eye Clinic)",
        "shop": "optician"
      }
    },
    {
      "type": "node",
      "id": 2455133619,
      "lat": 6.431958,
      "lon": 7.493845,
      "tags": {
        "addr:housenumber": "39.0",
        "addr:street": "Zik Avenue",
        "ele": "235.800003",
        "fixme": "many bad keys",
        "name": "Niger Optical Services Co Nig. Limited Eye Clinic",
        "shop": "optician"
      }
    },
    {
      "type": "node",
      "id": 2499343134,
      "lat": 7.6253485,
      "lon": 5.2230837,
      "tags": {
        "name": "juli pharmacy",
        "shop": "supermarket"
      }
    },
    {
      "type": "node",
      "id": 2519756647,
      "lat": 6.2029008,
      "lon": 6.6996218,
      "tags": {
        "name": "Mercedes",
        "shop": "car_repair"
      }
    },
    {
      "type": "node",
      "id": 2542783215,
      "lat": 7.4451827,
      "lon": 3.9005424,
      "tags": {
        "name": "University Bookshop",
        "shop": "books"
      }
    },
    {
      "type": "node",
      "id": 2554016956,
      "lat": 9.8903723,
      "lon": 8.8784528,
      "tags": {
        "name": "Ozzy Ostentatious",
        "shop": "variety_store",
        "source": "common knowledge",
        "source:position": "Bing Imagery"
      }
    },
    {
      "type": "node",
      "id": 2594871631,
      "lat": 7.4223904,
      "lon": 3.9098231,
      "tags": {
        "addr:city": "Ibadan",
        "addr:street": "Kenneth Dike Way",
        "name": "Foodco SuperMarket",
        "shop": "supermarket"
      }
    },
    {
      "type": "node",
      "id": 2594871635,
      "lat": 7.4233426,
      "lon": 3.9094744,
      "tags": {
        "name": "AB Plaza",
        "shop": "department_store"
      }
    },
    {
      "type": "node",
      "id": 2594871636,
      "lat": 7.4233213,
      "lon": 3.9102683,
      "tags": {
        "addr:city": "Ibadan",
        "addr:street": "Kenneth Dike Way",
        "name": "Big Treat",
        "shop": "supermarket"
      }
    },
    {
      "type": "node",
      "id": 2594871653,
      "lat": 7.4403725,
      "lon": 3.9073608,
      "tags": {
        "addr:city": "Ibadan",
        "name": "Agbowo Shopping Complex",
        "shop": "supermarket"
      }
    },
    {
      "type": "node",
      "id": 2594871681,
      "lat": 7.4387621,
      "lon": 3.9076559,
      "tags": {
        "name": "Preboye's World",
        "shop": "supermarket"
      }
    },
    {
      "type": "node",
      "id": 2594871740,
      "lat": 7.3933671,
      "lon": 3.8839869,
      "tags": {
        "name": "Ark Joe",
        "shop": "boutique"
      }
    },
    {
      "type": "node",
      "id": 2594871743,
      "lat": 7.3934483,
      "lon": 3.8840494,
      "tags": {
        "name": "Emerald Emporium",
        "shop": "boutique"
      }
    },
    {
      "type": "node",
      "id": 2639220719,
      "lat": 7.3937369,
      "lon": 3.8733477,
      "tags": {
        "name": "Booksellers",
        "shop": "books"
      }
    },
    {
      "type": "node",
      "id": 2639220724,
      "lat": 7.3939779,
      "lon": 3.8841298,
      "tags": {
        "shop": "boutique"
      }
    },
    {
      "type": "node",
      "id": 2639220727,
      "lat": 7.3923601,
      "lon": 3.8825944,
      "tags": {
        "name": "Westernb Laundry Limited",
        "shop": "laundry"
      }
    },
    {
      "type": "node",
      "id": 2639220728,
      "lat": 7.3934463,
      "lon": 3.8831322,
      "tags": {
        "name": "Emmy Brite",
        "shop": "boutique"
      }
    },
    {
      "type": "node",
      "id": 2639220729,
      "lat": 7.3934149,
      "lon": 3.8831757,
      "tags": {
        "name": "Konis",
        "shop": "boutique"
      }
    },
    {
      "type": "node",
      "id": 2639256373,
      "lat": 7.3659537,
      "lon": 3.8609978,
      "tags": {
        "name": "MTN",
        "shop": "mobile_phone"
      }
    },
    {
      "type": "node",
      "id": 2639256379,
      "lat": 7.3682946,
      "lon": 3.8600322,
      "tags": {
        "name": "MultiLinks",
        "shop": "mobile_phone"
      }
    },
    {
      "type": "node",
      "id": 2639256380,
      "lat": 7.3679967,
      "lon": 3.8601073,
      "tags": {
        "name": "Starcomms",
        "shop": "mobile_phone"
      }
    },
    {
      "type": "node",
      "id": 2639256381,
      "lat": 7.3645279,
      "lon": 3.8590988,
      "tags": {
        "name": "Big Treat",
        "shop": "department_store"
      }
    },
    {
      "type": "node",
      "id": 2639256409,
      "lat": 7.3472264,
      "lon": 3.878054,
      "tags": {
        "name": "Globacom",
        "shop": "mobile_phone"
      }
    },
    {
      "type": "node",
      "id": 2857842510,
      "lat": 9.0718498,
      "lon": 7.4840588,
      "tags": {
        "addr:housename": "Amigo Supermarket",
        "addr:street": "Adetokunbo Ademola Crescent",
        "name": "Amigo Supermarket",
        "name:en": "4U Supermarket",
        "shop": "supermarket",
        "source": "Teasy International Ltd"
      }
    },
    {
      "type": "node",
      "id": 2872937565,
      "lat": 12.0076303,
      "lon": 8.5484522,
      "tags": {
        "name": "Grand Square",
        "shop": "supermarket"
      }
    },
    {
      "type": "node",
      "id": 2877344409,
      "lat": 12.0047504,
      "lon": 8.5444334,
      "tags": {
        "name": "Alhaji Ayuba Ventures",
        "shop": "convenience"
      }
    },
    {
      "type": "node",
      "id": 2987189855,
      "lat": 6.4364898,
      "lon": 3.4513348,
      "tags": {
        "name": "Shoprite",
        "name:zh": "shoprite",
        "opening_hours": "Mo-Su 09:00-21:00",
        "shop": "supermarket"
      }
    },
    {
      "type": "node",
      "id": 2996971195,
      "lat": 12.0064639,
      "lon": 8.5586644,
      "tags": {
        "name": "Well Care",
        "shop": "supermarket",
        "source": "local_knowledge"
      }
    },
    {
      "type": "node",
      "id": 3011769550,
      "lat": 6.4706719,
      "lon": 3.3066966,
      "tags": {
        "name": "Procuremax Autocare",
        "shop": "car_repair"
      }
    },
    {
      "type": "node",
      "id": 3132103692,
      "lat": 11.6765799,
      "lon": 10.1889316,
      "tags": {
        "shop": "supermarket"
      }
    },
    {
      "type": "node",
      "id": 3132103705,
      "lat": 11.6751818,
      "lon": 10.1918599,
      "tags": {
        "shop": "kiosk"
      }
    },
    {
      "type": "node",
      "id": 3132103706,
      "lat": 11.6760644,
      "lon": 10.1916024,
      "tags": {
        "shop": "books"
      }
    },
    {
      "type": "node",
      "id": 3132113000,
      "lat": 11.6815567,
      "lon": 10.1919379,
      "tags": {
        "shop": "yes"
      }
    },
    {
      "type": "node",
      "id": 3132295819,
      "lat": 11.685475,
      "lon": 10.1886577,
      "tags": {
        "shop": "bakery"
      }
    },
    {
      "type": "node",
      "id": 3132297906,
      "lat": 11.689273,
      "lon": 10.1929828,
      "tags": {
        "shop": "hairdresser"
      }
    },
    {
      "type": "node",
      "id": 3248993978,
      "lat": 13.0601065,
      "lon": 5.2185215,
      "tags": {
        "name": "Oasis Bakery",
        "opening_hours": "8am to 10pm",
        "shop": "bakery"
      }
    },
    {
      "type": "node",
      "id": 3293273909,
      "lat": 13.1224484,
      "lon": 13.8600164,
      "tags": {
        "shop": "convenience"
      }
    },
    {
      "type": "node",
      "id": 3342413292,
      "lat": 7.769341,
      "lon": 4.5391798,
      "tags": {
        "addr:city": "Osogbo",
        "name": "TJ Toyota Repairs",
        "shop": "car_repair"
      }
    },
    {
      "type": "node",
      "id": 3351526020,
      "lat": 7.7622223,
      "lon": 4.5331797,
      "tags": {
        "addr:street": "Gbongan - Osogbo Road",
        "name": "Kia Motors",
        "shop": "car"
      }
    },
    {
      "type": "node",
      "id": 3358481437,
      "lat": 7.7637827,
      "lon": 4.5344023,
      "tags": {
        "addr:city": "Osogbo",
        "addr:street": "Gbongan - Osogbo Road",
        "name": "LG Show Room",
        "shop": "electronics"
      }
    },
    {
      "type": "node",
      "id": 3358483162,
      "lat": 7.7640378,
      "lon": 4.5348851,
      "tags": {
        "addr:city": "Osogbo",
        "addr:street": "Gbongan - Osogbo Road",
        "name": "Citadel Computer",
        "shop": "computer"
      }
    },
    {
      "type": "node",
      "id": 3391589631,
      "lat": 7.7697268,
      "lon": 4.5401611,
      "tags": {
        "addr:city": "Osogbo",
        "addr:street": "Gbongan - Osogbo Road",
        "name": "Thermocool Showroom",
        "shop": "electronics"
      }
    },
    {
      "type": "node",
      "id": 3391605680,
      "lat": 7.7785499,
      "lon": 4.5483043,
      "tags": {
        "addr:city": "Osogbo",
        "name": "New Orisunbare Market",
        "shop": "mall"
      }
    },
    {
      "type": "node",
      "id": 3631633696,
      "lat": 6.5034495,
      "lon": 3.3785608,
      "tags": {
        "Creative_Lagos": "Yes",
        "addr:city": "Lagos",
        "addr:housenumber": "9",
        "addr:postcode": "Yaba",
        "addr:street": "McEwen Street",
        "contact:twitter": "https://twitter.com/ccalagos",
        "description": "The Centre for Contemporary Art, Lagos (CCA,Lagos) is an independent non-profit making visual art organisation set up in December 2007 to provide a platform for the development, presentation, and discussion of contemporary visual art and culture.",
        "name": "CCA Lagos",
        "operator": "Jude Anogwih",
        "shop": "art",
        "website": "http://www.ccalagos.org/"
      }
    },
    {
      "type": "node",
      "id": 3678929529,
      "lat": 6.4450027,
      "lon": 3.4039778,
      "tags": {
        "Creative_Lagos": "Creative_Space",
        "addr:city": "Lagos",
        "addr:housenumber": "5",
        "addr:street": "Military Street",
        "name": "Rele Art Gallery",
        "shop": "art"
      }
    },
    {
      "type": "node",
      "id": 3679264378,
      "lat": 6.4417,
      "lon": 3.4189564,
      "tags": {
        "Creative_Lagos": "Creative_Space",
        "addr:city": "Lagos",
        "addr:housenumber": "58",
        "addr:street": "Raymond Njoku Street",
        "name": "A Whitespace",
        "shop": "art"
      }
    },
    {
      "type": "node",
      "id": 3679464634,
      "lat": 6.4243136,
      "lon": 3.4235688,
      "tags": {
        "Creative_Lagos": "Creative_Space",
        "addr:housenumber": "51b",
        "addr:street": "Bishop Oluwole Street",
        "area": "Victoria Island",
        "name": "Red Door Gallery",
        "shop": "art"
      }
    },
    {
      "type": "node",
      "id": 3698433628,
      "lat": 12.0084782,
      "lon": 8.5760499,
      "tags": {
        "addr:city": "Kano",
        "addr:street": "Hadejia Road",
        "name": "AG Stores",
        "shop": "supermarket"
      }
    },
    {
      "type": "node",
      "id": 3706432530,
      "lat": 7.4349312,
      "lon": 3.9441145,
      "tags": {
        "amenity": "fuel",
        "brand": "Independent",
        "fuel:diesel": "yes",
        "fuel:octane_92": "yes",
        "fuel:octane_98": "no",
        "name": "Amazing Investments Limited",
        "shop": "kiosk"
      }
    },
    {
      "type": "node",
      "id": 3711163925,
      "lat": 7.4355332,
      "lon": 3.9460131,
      "tags": {
        "name": "Ace Supermarket",
        "shop": "supermarket"
      }
    },
    {
      "type": "node",
      "id": 3712817763,
      "lat": 7.436514,
      "lon": 3.9461095,
      "tags": {
        "name": "Graceys",
        "shop": "supermarket"
      }
    },
    {
      "type": "node",
      "id": 3712820912,
      "lat": 7.4356716,
      "lon": 3.944919,
      "tags": {
        "name": "Renicot",
        "shop": "supermarket"
      }
    },
    {
      "type": "node",
      "id": 3752452657,
      "lat": 7.7619481,
      "lon": 4.5322328,
      "tags": {
        "addr:city": "Osogbo",
        "addr:street": "Gbongan - Osogbo Road",
        "name": "Ogo Oluwa Motors",
        "shop": "car_repair"
      }
    },
    {
      "type": "node",
      "id": 3813046270,
      "lat": 11.9779104,
      "lon": 8.5346188,
      "tags": {
        "addr:city": "Kano",
        "addr:street": "Zoo Road",
        "atm": "yes",
        "name": "Shoprite",
        "operator": "Shoprite",
        "parking": "surface",
        "shop": "mall",
        "source": "steadfast.com.ng"
      }
    },